MFL_Code,Facility_Name,County,SubCounty,Owner,Latitude,Longitude
14868,Kimana Health Centre,Kajiado,Kajiado North,Ministry of Health,1.6467,2.865757
17757,Baraka Hospital,Narok,Narok West,Non-Governmental Organizations,-0.9775,35.3774
18867,Nyabondo Rehabilitation Centre,Kisumu,Nyakach,Christian Health Association of Kenya,-0.3817,34.9788
15901,Imbiakalo Dispensary,Kakamega,Malava,Ministry of Health,0.281349,34.751401
14097,Sony Medical Centre,Migori,Awendo,Company Medical Service,-0.8937,34.5334
11566,Mariakani District Hospital,Kilifi,Kaloleni,Ministry of Health,-3.8631,39.4721
10244,Geta Bush Health centre,Nyandarua,Kipipiri,Ministry of Health,-0.4136,36.5839
10171,Engineer District Hospital,Nyandarua,Kinangop,Ministry of Health,-0.6105,36.5919
15956,Kopsiro Model Health Centre,Bungoma,Cheptais,Ministry of Health,0.8228,34.5903
11818,St Luke's (ACK) Nursing home Kaloleni,Kilifi,Kaloleni,Other Faith Based,-3.8119,39.6331
15985,Madende Health Centre,Busia,Nambale,Ministry of Health,0.4767,34.3465
17602,Kalambani Dispensary,Kitui,Kitui South,Ministry of Health,-1.325238,38.00357
15936,Khaunga Dispensary,Kakamega,Mumias East,Ministry of Health,0.3769,34.5844
11382,Ganda Dispensary,Kilifi,Malindi,Ministry of Health,-3.2161,40.0656
13007,Kariokor Clinic,Nairobi,Starehe,Local Authority,-1.292066,36.821946
12395,Kwa Nguu Dispensary,Machakos,Matungulu,Ministry of Health,-1.468774,37.732655
13920,Nyandiwa Dispensary,Homa Bay,Suba South,Ministry of Health,-0.7246,34.0513
13808,Milimani Hospital,Kisumu,Kisumu Central,Private Enterprise (Institution),-0.029384,34.494442
12571,Mumbuni Health Centre (Makueni),Makueni,Makueni,Ministry of Health,-1.801198,37.708151
12501,Mbita Dispensary ( Mbeere ),Embu,Mbeere South,Ministry of Health,-0.6374,37.594
15862,Coptic Nursing Home,Vihiga,Luanda,Coptic Orthodox Church,-0.0043,34.601
11401,Gongoni Health Centre,Kilifi,Magarini,Ministry of Health,-3.0364,40.1335
16132,Sonak Community Medical Centre,Kakamega,Khwisero,Private Practice - Nurse / Midwife,0.281349,34.751401
13000,Kamiti Prison Hospital,Nairobi,Roysambu,Ministry of Health,-1.1761,36.8934
10539,Kiambu District Hospital,Kiambu,Kiambu Town,Ministry of Health,-1.172,36.8297
14087,Sikalame Dispensary,Siaya,Ugunja,Ministry of Health,0.1688,34.4051
12049,GK Prison Dispensary (Meru),Meru,Imenti North,Ministry of Health,0.0529,37.6447
13579,GK Prisons Dispensary (Kibos),Kisumu,Kisumu East,Ministry of Health,-0.0718,34.8209
21375,Teremkus Dispensary,Turkana,Turkana West,Ministry of Health,4.2020266,34.3562172
10870,Ngorano Health Centre,Nyeri,Mathira West,Kenya Episcopal Conference-Catholic Secretariat,-0.4128,37.0644
15048,Lodungokwe Health Centre,Samburu,Samburu East,Ministry of Health,0.87017,37.00815
13983,Nyamogonchoro Dispensary,Kisii,South Mugirango,Ministry of Health,-0.898421,34.679
10912,Old Mawingu Health Centre,Nyandarua,Kipipiri,Ministry of Health,-0.4714,36.5062
19108,Imbirikani Dispensary,Kajiado,Loitokitok,Ministry of Health,-1.558724,36.478973
14814,Kataboi dispensary,Turkana,Turkana North,Kenya Episcopal Conference-Catholic Secretariat,3.9051,35.7514
10698,Mary Help of the Sick Hospital,Kiambu,Thika Town,Kenya Episcopal Conference-Catholic Secretariat,-0.9576,36.9015
15903,Inyali Dispensary,Vihiga,Sabatia,Ministry of Health,0.095981,34.739828
18828,Lea Toto Zimmerman,Nairobi,Roysambu,Non-Governmental Organizations,-1.2088,36.8947
15368,Nturukuma Dispensary,Laikipia,Laikipia East,Ministry of Health,0.255549,36.225048
14129,Star Maternity & Nursing Home,Kisumu,Kisumu Central,Private Enterprise (Institution),-0.1218,34.7531
10666,Lussigetti Sub-county Hospital,Kiambu,Kikuyu,Ministry of Health,-1.2822,36.6126
15882,Eshikhuyu Dispensary,Kakamega,Lurambi,Ministry of Health,0.281349,34.751401
12102,Iuani Health Centre,Makueni,Kaiti,Ministry of Health,-1.801198,37.708151
14776,Kaptarakwa Sub-District Hospital,Elgeyo Marakwet,Keiyo South,Ministry of Health,0.674319,35.501897
13735,Ligega Health Centre,Siaya,Ugunja,Ministry of Health,0.2015,34.2505
12487,Matuu Cottage Clinic,Machakos,Yatta,Private Enterprise (Institution),-1.1381,37.5146
11991,Dwa Health Centre,Makueni,Kibwezi East,Company Medical Service,-2.39765,38.01388
10049,Baricho Health Centre,Kirinyaga,Kirinyaga West,Ministry of Health,-0.5531,37.2393
16785,Bar Sauri Health Centre,Siaya,Gem,Ministry of Health,0.1113,34.525
11274,Coast General Teaching and Referral Hospital (Chaani Outreach Centre),Mombasa,Changamwe,Ministry of Health,-4.0318,39.6273
15885,Esiarambatsi Health Centre,Vihiga,Emuhaya,Ministry of Health,0.0808,34.6074
15362,Nkararo Health Centre,Narok,Transmara West,Ministry of Health,0.4399,35.9953
17003,Kiraone Dispensary,Meru,Igembe South,Ministry of Health,0.20327,37.98056
20343,Nakuru Heart Centre,Nakuru,Nakuru West,Private Practice,-0.2947,36.061
11654,St Marys Msabaha Catholic Dispensary,Kilifi,Malindi,Kenya Episcopal Conference-Catholic Secretariat,-3.968514,39.54447
15801,Ap Line Dispensary,Kakamega,Lurambi,Ministry of Health,0.2753,34.7551
14064,Sagam Community Hospital,Siaya,Gem,Private Enterprise (Institution),0.0561,34.5418
22760,Kikopey Dispensary,Nakuru,Gilgil,Ministry of Health,None,None
15686,Sunrise Evans Hospital,Nakuru,Nakuru West,Private Practice - Medical Specialist,-0.2947,36.0609
16084,Nzoia (ACK) Dispensary,Kakamega,Likuyani,Christian Health Association of Kenya,0.8676,35.0445
13663,Kegonga Sub County Hospital,Migori,Kuria East,Ministry of Health,-1.2586,34.6527
20153,Kasewe Dispensary,Homa Bay,Rachuonyo East,Ministry of Health,-0.4489,34.8931
11256,Bombi Dispensary,Kilifi,Magarini,Ministry of Health,-3.968514,39.54447
11618,Mirihini Dispensary,Kilifi,Ganze,Ministry of Health,-3.968514,39.54447
14326,Chemuswo Dispensary,Nandi,Chesumei,Ministry of Health,0.3438,35.1171
14298,Chebitet Dispensary,Bomet,Konoin,Company Medical Service,-0.918432,35.299013
17710,Ringiti Dispensary,Homa Bay,Suba West,Ministry of Health,-0.4609,33.9455
11659,Msumarini Dispensary,Kilifi,Kilifi South,Ministry of Health,-3.8723,39.7979
17469,Kiteje Dispensary,Kwale,Matuga,Ministry of Health,-3.968514,39.54447
19123,Northstar Alliance Wellness Centre (Mai Mahiu),Nakuru,Naivasha,Ministry of Health,-0.9813,36.5846
13889,Nyalgosi Dispensary,Homa Bay,Rachuonyo South,Ministry of Health,-0.4546,34.6867
10822,Naromoru Health Center,Nyeri,Kieni West,Ministry of Health,-0.1667,37.0203
13805,Migori County Referral Hospital,Migori,Suna East,Ministry of Health,-1.0604,34.4763
12792,Thaana Nzau Dispensary,Kitui,Mwingi West,Ministry of Health,-1.325238,38.00357
13504,Bogwendo Health Centre(Manga),Nyamira,Manga,Ministry of Health,-0.64391,34.89357
16160,Webuye Health Centre,Bungoma,Webuye East,Ministry of Health,0.578148,34.559255
18171,Administration Police Senior Staff College Dispensary,Makueni,Kilome,Ministry of Health,-2.0945,37.5562
18216,Kitum Dispensary,Trans Nzoia,Endebess,Ministry of Health,1.015835,35.003314
15950,Kimilili Subcounty Hospital,Bungoma,Kimilili,Ministry of Health,0.7892,34.7006
19606,Mrima Maternity Hospital,Mombasa,Likoni,Ministry of Health,-4.0986,39.6487
20619,Oasis Specialist Hospital,Kisii,Kitutu Chache South,Private Practice - Medical Specialist,None,None
14164,Usigu Health Centre,Siaya,Bondo,Ministry of Health,-0.0568,34.0994
14028,Ram Hospital,Kisii,Kitutu Chache South,Private Enterprise (Institution),-0.675747,34.771766
23458,Kolani Dispensary,Bungoma,Sirisia,Ministry of Health,None,None
18581,Mlolongo Health Centre,Machakos,Athi River,Ministry of Health,-1.3884,36.949
20543,Kiarukungu Dispensary,Kirinyaga,Kirinyaga South,Ministry of Health,-0.62123,37.3999
15738,Tot Sub-District Hospital,Elgeyo Marakwet,Marakwet East,Ministry of Health,1.2088,35.6563
13747,Madiany Sub County  Hospital,Siaya,Rarieda,Ministry of Health,-0.284,34.323
17747,Good Shepherd Ang'iya,Homa Bay,Ndhiwa,Kenya Episcopal Conference-Catholic Secretariat,-0.7341,34.5225
15234,Motosiet Health Centre,Trans Nzoia,Cherangany,Ministry of Health,0.9909,35.1548
11398,GK Prisons Dispensary (Tana River),Tana River,Galole,Ministry of Health,-1.4987,40.0342
13473,Aluor Mission Health Centre,Siaya,Gem,Kenya Episcopal Conference-Catholic Secretariat,0.0105,34.465
14928,Kiptere Dispensary,Kericho,Sigowet/Soin,Ministry of Health,-0.3972,35.0937
13056,Makadara Health Centre,Nairobi,Makadara,Local Authority,-1.2967,36.8729
13207,St Joseph (EDARP) Clinic,Nairobi,Kamukunji,Kenya Episcopal Conference-Catholic Secretariat,-1.2905,36.8468
27186,Gichagi Dispensary,Nairobi,Westlands,Ministry of Health,1.2712436,36.7423699
12340,Kisasi Health Centre (Kitui),Kitui,Kitui Rural,Ministry of Health,-1.5454,38.027
14867,Kimalel Health Centre,Baringo,Marigat,Ministry of Health,0.4648,35.8914
12290,Kiburine Dispensary,Meru,Imenti North,Ministry of Health,0.002403,37.826242
21144,MARPS Project Machakos Dice,Machakos,Machakos,Public Institution - Academic,-1.5195,37.2619
12976,Huruma Nursing Home & Maternity,Nairobi,Starehe,Private Enterprise (Institution),-1.2573,36.8752
13464,Administration Police Dispensary (Kisumu),Kisumu,Kisumu Central,Ministry of Health,-0.1241,34.7581
20019,Isbania Prevention Centre,Migori,Kuria West,Non-Governmental Organizations,-1.239,34.4791
15967,Lukhuna Dispensary,Bungoma,Tongaren,Ministry of Health,0.8053,34.9401
13033,Kikoshep Kenya (Mugumoini),Nairobi,Langata,Non-Governmental Organizations,-1.3165,36.8171
14671,Kamawoi Dispensary,Kericho,Belgut,Ministry of Health,-0.3904,35.128
23128,Mwena Dispensary,Kwale,Lunga Lunga,Ministry of Health,-10.497076,38.84557811
14134,Suna Nursing and Maternity Home,Migori,Suna West,Private Enterprise (Institution),-0.931723,34.568456
14099,Sosera Dispensary,Kisii,Nyaribari Masaba,Ministry of Health,-0.8623,34.98804
17435,Keera Dispensary,Kisii,Kitutu Chache South,Ministry of Health,-0.675747,34.771766
16421,Changara (GOK) Dispensary,Busia,Teso North,Ministry of Health,0.7376,34.4214
12589,Muthambi Health Centre,Tharaka-Nithi,Muthambi,Ministry of Health,-0.2746,37.6605
11662,Mtaa Dispensary,Kwale,Kinango,Ministry of Health,-3.968514,39.54447
11548,Makere Dispensary,Tana River,Galole,Ministry of Health,-1.3372,40.0007
11691,Mwangulu Dispensary,Kwale,Lunga Lunga,Ministry of Health,-4.4095,39.0134
15703,Tambach Sub-County Hospital,Elgeyo Marakwet,Keiyo North,Ministry of Health,0.5953,35.5223
12676,Nthongoni Health Centre (Kibwezi),Makueni,Kibwezi East,Ministry of Health,-2.7054,38.0479
20618,Mungetho Dispensary,Nakuru,Kuresoi North,Ministry of Health,None,None
13949,NYS Dispensary (Suba),Homa Bay,Suba South,Other Public Institution,-0.6079,34.2598
18895,Korogocho Health Centre,Nairobi,Ruaraka,Ministry of Health,-1.2563,36.9061
18854,Jirime Dispensary,Marsabit,Saku,Ministry of Health,2.344972,37.999111
19429,SWOP Donholm,Nairobi,Embakasi East,Non-Governmental Organizations,-1.29678,36.89436
14562,Ilaiser Dispensary,Narok,Narok East,Ministry of Health,-0.8893,36.1043
13683,Kiamokama Health Centre,Kisii,Nyaribari Masaba,Ministry of Health,-0.560304,34.927533
12025,Gafarsa Health Centre,Isiolo,Garbatulla,Ministry of Health,0.340332,37.590252
22501,Namwatikho Dispensary,Bungoma,Webuye East,Ministry of Health,None,None
13077,Mathare North Health Centre,Nairobi,Ruaraka,Local Authority,-1.2532,36.8675
18725,Pedo Dispensary,Kisumu,Nyakach,Ministry of Health,-0.029384,34.494442
12030,Gatab Health Centre,Marsabit,Laisamis,Christian Health Association of Kenya,2.344972,37.999111
11265,Bura Mission Clinic,Taita Taveta,Mwatate,Other Faith Based,-3.4534,38.3133
20061,Nairobi Women's Hospital,Nakuru,Nakuru East,Private Practice - General Practitioner,-0.2655,36.0556
11297,Dagamra Dispensary,Kilifi,Magarini,Ministry of Health,-3.968514,39.54447
11942,Baragu Health Centre,Tharaka-Nithi,Mwimbi,Ministry of Health,-0.2479,37.6797
15693,Swari Model Health Centre,Samburu,Samburu East,Ministry of Health,1.09738,37.007168
13524,Chiga Dispensary,Kisumu,Kisumu East,Local Authority,-0.0935,34.8383
14877,Kimondo Dispensary,Trans Nzoia,Endebess,Ministry of Health,1.015835,35.003314
20522,Maikona Health Centre,Marsabit,North Horr,Ministry of Health,2.9360994,37.62810332
10662,Limuru Nursing Home,Kiambu,Limuru,Private Enterprise (Institution),-1.168864,36.826319
13532,Dede Health Centre,Migori,Awendo,Ministry of Health,-0.8144,34.5331
14110,St Joseph Mission Hospital,Migori,Suna East,Kenya Episcopal Conference-Catholic Secretariat,-1.0708,34.4747
14520,GK Prisons Dispensary (Kapenguria),West Pokot,Turkana Central,Ministry of Health,1.2277,35.1245
12777,Sultan Hamud Sub County Hospital,Makueni,Kilome,Ministry of Health,-2.0166,37.3778
13894,Nyamaiya Health Centre,Nyamira,Nyamira,Ministry of Health,-0.4871,34.9084
13719,Koru Mission Health Centre,Kisumu,Muhoroni,Kenya Episcopal Conference-Catholic Secretariat,-0.1858,35.2742
10019,Cardinal Otunga Health Centre,Kiambu,Gatundu North,Faith Based,-0.9888,36.9554
13484,Arito Langi Health Centre,Kisumu,Seme,Ministry of Health,-0.0945,34.4495
11577,Mata Dispensary (Taveta),Taita Taveta,Taveta,Ministry of Health,-3.0139,38.2113
19311,Ishtar MSM,Nairobi,Starehe,Non-Governmental Organizations,-1.27692,36.82817
17069,Yala Dispensary,Homa Bay,Rachuonyo South,Ministry of Health,-0.4888,34.6716
10055,Bellevue Health Centre,Nyeri,Kieni West,Ministry of Health,-0.2281,36.7302
15303,Nanam Dispensary,Turkana,Turkana West,Christian Health Association of Kenya,0.865298,36.452774
16995,St Joseph Kavisuni Health Centre,Kitui,Kitui Rural,Other Faith Based,-1.6796,37.9235
14609,Kabartonjo Referral Hospital,Baringo,Baringo North,Ministry of Health,0.6182,35.787
19861,Koduogo Dispensary,Homa Bay,Homa Bay Town,Ministry of Health,-0.5729,34.4369
13546,Eramba Dispensary,Kisii,Kitutu Chache North,Ministry of Health,-0.546938,34.7811
13548,Esani Sub-District Hospital,Nyamira,Masaba North,Ministry of Health,-0.6953,34.9435
21215,Emerging Infectious Disease Center,Nairobi,Westlands,Private Practice - General Practitioner,-1.2598768,36.8153169
11520,Likoni Catholic Dispensary,Mombasa,Likoni,Non- Governmental Organizations,-4.0992,39.6458
12283,Kiarago Health Centre,Meru,Imenti South,Ministry of Health,-0.293978,37.618555
14924,Kiptagich Model Health centre,Nakuru,Kuresoi South,Ministry of Health,-0.570585,35.612507
21212,Kokech Mirondo Health Center,Homa Bay,Rachuonyo South,Ministry of Health,None,None
10229,Gatugura Dispensary,Kirinyaga,Kirinyaga East,Ministry of Health,-0.566715,37.320265
12622,Mwanyani Health Centre,Makueni,Kibwezi West,Ministry of Health,-1.801198,37.708151
18668,Reinha Rosary MEdical Clinic(Githunguri),Nairobi,Embakasi East,Other Faith Based,-1.292066,36.821946
14177,Family Healthoptions Kenya (Nakuru),Nakuru,Nakuru East,Non-Governmental Organizations,-0.283028,36.075022
20199,Mbaka Oromo Health Centre,Kisumu,Kisumu West,Ministry of Health,-0.0147,34.6347
10474,Kanyenyaini Health Centre,Murang'a,Murang'a West,Ministry of Health,-0.686,36.8829
18001,Prudent Medical Clinic Kariobangi,Nairobi,Embakasi Central,Private Enterprise (Institution),-1.292066,36.821946
14728,Kapkoros Sub-County Hospital,Bomet,Bomet Central,Ministry of Health,-0.6651,35.275
17596,Shinyalu Model Health Centre,Kakamega,Shinyalu,Ministry of Health,0.2213,34.8134
15837,A.C.K Butonge Dispensary,Bungoma,Sirisia,Christian Health Association of Kenya,0.578148,34.559255
15323,Ndarawetta Health centre,Bomet,Bomet Central,Ministry of Health,-0.40573,35.22321
15809,Boyani Dispensary,Vihiga,Hamisi,Other Faith Based,0.095981,34.739828
11632,David Kariuki Medical Centre,Kilifi,Malindi,Private Practice - Clinical Officer,-3.968514,39.54447
22173,TUMAINI DISC-SIAYA,Siaya,Alego Usonga,Non-Governmental Organizations,0.0565,34.2919
11283,Chewani Dispensary,Tana River,Galole,Ministry of Health,-1.4705562,39.00399231
11439,Jordan Medical Clinic,Mombasa,Kisauni,Private Enterprise (Institution),-4.0114,39.6941
18681,Makongo Dispensary,Kitui,Kitui East,Ministry of Health,-1.40758,38.89322
21208,Mainga Health Centre,Kisumu,Kisumu West,Ministry of Health,-0.0473,34.6713
13617,Ikonge Dispensary,Nyamira,Nyamira North,Ministry of Health,-0.536,35.0212
13839,Ndeda Dispensary,Siaya,Bondo,Ministry of Health,-0.2185,34.1185
21701,Musikoma Dispensary,Bungoma,Kanduyi,Ministry of Health,None,None
18336,Keragia Dispensary,Kisii,Bomachoge Chache,Ministry of Health,-0.84389,34.75244
17681,Manda Dispensary,Kakamega,Malava,Ministry of Health,0.281349,34.751401
15928,Kegondi Health Centre,Vihiga,Sabatia,Ministry of Health,0.1304,34.7308
13122,Ngara Health Centre (City Council of Nairobi),Nairobi,Starehe,Local Authority,-1.2735,36.8313
18594,Joy Nursing Home and Maternity,Nairobi,Kamukunji,Private Practice - General Practitioner,-1.292066,36.821946
15180,Merueshi Village Community Health Centre,Kajiado,Kajiado East,Private Enterprise (Institution),-1.558724,36.478973
14975,Kokuro Health Centre,Turkana,Kibish,Ministry of Health,0.865298,36.452774
19887,Nasira Dispensary,Busia,Matayos,Ministry of Health,0.4608,34.1073
13531,Daraja Medical Clinic,Kisii,Kitutu Chache South,Private Enterprise (Institution),-0.675747,34.771766
14335,Chepkanga Health Centre,Uasin Gishu,Moiben,Ministry of Health,0.5824,35.3062
13527,Christamarianne  Hospital,Kisii,Nyaribari Chache,Kenya Episcopal Conference-Catholic Secretariat,-0.6822,34.7723
13739,St Elizabeth Lwak Mission Health Centre,Siaya,Rarieda,Kenya Episcopal Conference-Catholic Secretariat,-0.13,34.35
16953,Waso Rongai Dispensary,Samburu,Samburu North,Ministry of Health,0.865298,36.452774
20509,Kamweli Dispensary,Embu,Mbeere South,Ministry of Health,-0.52247,37.45581
14893,Kipkabus Health Centre,Uasin Gishu,Ainabkoi,Ministry of Health,0.292,35.4978
13584,GodBer Health Center,Homa Bay,Rachuonyo East,Ministry of Health,-0.5097,34.8027
17388,Clinix Health Care (Sarangombe,Nairobi,Langata,Private Practice - Unspecified,-1.2921,36.8219
16101,Savane Dispensary,Kakamega,Ikolomani,Ministry of Health,0.281349,34.751401
23587,Bisunu Dispensary,Bungoma,Sirisia,Ministry of Health,None,None
12815,Turbi Dispensary (Marsabit North),Marsabit,North Horr,Ministry of Health,2.344972,37.999111
19629,Al-Firdaus Health Care,Mombasa,Mvita,Private Practice - General Practitioner,-4.0454,39.6651
11543,Majimoto Dispensary,Kwale,Lunga Lunga,Ministry of Health,-3.968514,39.54447
13093,Mji Wa Huruma Dispensary ,Nairobi,Westlands,Ministry of Health,-1.2252975,36.82264432
13833,Muhuru Sub-County Hospital,Migori,Nyatike,Ministry of Health,-1.0129,34.1318
11141,Uthiru Dispensary,Kiambu,Kabete,Ministry of Health,-1.2534,36.7135
14085,Sigomere Subcounty Hospital,Siaya,Ugunja,Ministry of Health,0.1963,34.3645
18361,Eluche,Kakamega,Mumias East,Community,0.281349,34.751401
11164,Wamumu Dispensary,Kirinyaga,Kirinyaga North/Mwea West,Ministry of Health,-0.566715,37.320265
13640,Kadem Tb & Leprosy Dispensary,Migori,Nyatike,Kenya Episcopal Conference-Catholic Secretariat,-1.0054,34.2469
17717,Komarock Morden Medical Care,Nairobi,Embakasi Central,Private Practice - General Practitioner,-1.292066,36.821946
17680,Osieko Dispensary,Busia,Bunyala,Ministry of Health,0.0279,34.0151
15253,Muramati Dispensary,Laikipia,Laikipia North,Ministry of Health,0.0697,37.16
12488,Matuu District Hospital,Machakos,Yatta,Ministry of Health,-1.1481,37.5346
16117,Shiru Health Centre,Vihiga,Hamisi,Ministry of Health,0.1617,34.9116
13539,Medical Link (Gucha),Kisii,Bomachoge Chache,Private Practice - Nurse / Midwife,-0.675747,34.771766
21456,Kisasi Dispensary,Vihiga,Hamisi,Ministry of Health,0.1099,34.8367
15509,Sachang'wan Dispensary,Nakuru,Molo,Ministry of Health,-0.2045,35.7862
12369,Kitundu (GOK) Dispensary,Makueni,Mbooni,Ministry of Health,-1.801198,37.708151
20013,Maliera SDA Dispensary,Siaya,Gem,Other Faith Based,0.1105,34.4529
14012,Pand Pieri Community Dispensary,Kisumu,Kisumu Central,Kenya Episcopal Conference-Catholic Secretariat,-0.1163,34.757
14976,Kokwa Dispensary,Baringo,Marigat,Ministry of Health,0.06067,36.07001
10507,Karuri Health Centre,Kiambu,Kiambaa,Ministry of Health,-1.1759,36.7523
16980,Kenyambi Health Centre (Nyamira),Nyamira,Nyamira,Ministry of Health,-0.5709,34.9141
13588,Got Agulu Sub-District Hospital,Siaya,Bondo,Ministry of Health,-0.0341,34.0248
13698,Kipkebe Health Centre,Nyamira,Borabu,Company Medical Service,-0.64894,35.04792
15102,Luoniek Dispensary,Laikipia,Laikipia North,Ministry of Health,0.255549,36.225048
18051,Nyawango Dispensary,Homa Bay,Rachuonyo East,Ministry of Health,-0.4146,34.7586
13824,Motemorabu Dispensary,Migori,Kuria West,Ministry of Health,-1.18309,34.41133
13651,Kambajo Dispensary,Siaya,Bondo,Ministry of Health,-0.0789,34.2114
11912,Oasis Medical Center,Kilifi,Kilifi South,Other Faith Based,-3.9302,39.7496
11488,Kishushe Dispensary,Taita Taveta,Wundanyi,Ministry of Health,-3.2783,38.3238
11467,Kichaka Simba Dispensary,Kwale,Matuga,Other Faith Based,-4.3492,39.3568
14494,Fatima Maternity Hospital,Kajiado,Kajiado North,Kenya Episcopal Conference-Catholic Secretariat,-2.0681,36.7773
20072,Melchizedek Hospital Karen,Nairobi,Langata,Private Enterprise (Institution),-1.3275,36.7172
16814,Kiandutu Health Centre,Kiambu,Thika Town,Ministry of Health,-1.03,37.0773
11225,Mrs - 77 Artillery Battallion (Mariakani),Kilifi,Kaloleni,Armed Forces,-3.80708,39.44444
15356,Njipiship Dispensary,Narok,Transmara East,Ministry of Health,-0.918432,35.299013
16992,Nzangathi Health Center,Kitui,Kitui East,Ministry of Health,-1.50715,38.09226
20191,Kurum Dispensary,Laikipia,Laikipia North,Ministry of Health,0.4383387,37.2307584
13611,Ibacho Sub-District Hospital,Kisii,Nyaribari Masaba,Ministry of Health,-0.8981,34.9402
18291,Ahero Medical Centre,Kisumu,Nyando,Private Practice - Nurse / Midwife,-1.2422,37.9749
14123,St Paul Dispensary,Siaya,Ugunja,Kenya Episcopal Conference-Catholic Secretariat,0.1633,34.2932
10798,Mutithi Health Centre,Kirinyaga,Kirinyaga North/Mwea West,Ministry of Health,-0.7268,37.3227
13907,Nyamekongoroto Health Centre,Migori,Kuria West,Ministry of Health,-1.148174,34.496752
12962,GSUTraining School,Nairobi,Embakasi East,Ministry of Health,-1.2903,36.9531
14150,Tom Mboya Memorial SCH,Homa Bay,Suba North,Ministry of Health,-0.4002,34.1641
15831,Busembe Dispensary,Busia,Samia,Ministry of Health,0.185,34.0164
16663,Impact Healthcare Services,Kisumu,Kisumu Central,Non-Governmental Organizations,-0.0866,34.7661
11161,Wamagana Health Center,Nyeri,Tetu,Ministry of Health,-0.4771,36.9334
15922,Kapkateny Dispensary,Bungoma,Cheptais,Ministry of Health,0.578148,34.559255
18210,Mlaleo Health Centre (MOH),Mombasa,Nyali,Ministry of Health,-4.0282,39.6861
15373,Nyamathi Dispensary,Nakuru,Naivasha,Ministry of Health,-0.7806,36.5124
15725,Timboroa Health Centre,Baringo,Koibatek,Ministry of Health,0.0638,35.8474
15386,Ol-Arabel Dispensary,Baringo,Marigat,Ministry of Health,0.581543,35.802044
14720,Kapkoi Health Centre (Kwanza),Trans Nzoia,Kwanza,Ministry of Health,1.217,34.9045
13791,Matongo Health Centre,Nyamira,Nyamira North,Christian Health Association of Kenya,-0.7806,36.5124
14057,Rodi Health Centre,Kisumu,Seme,Ministry of Health,-0.1188,34.5726
10931,Pesi Dispensary,Nyandarua,Ndaragwa,Ministry of Health,-0.199985,36.375003
11477,Kimorigho Dispensary,Taita Taveta,Taveta,Ministry of Health,-3.013948,38.211341
20137,Rhonda Health centre,Nakuru,Nakuru West,Ministry of Health,-0.2895,36.0349
11609,Midoina Dispensary,Kilifi,Ganze,Ministry of Health,-3.968514,39.54447
15564,Sigor Sub District Hospital,West Pokot,Pokot Central,Ministry of Health,1.4855,35.4678
15013,Lare Health Centre,Nakuru,Njoro,Ministry of Health,-0.39356,36.02481
15201,Mogwa Dispensary,Kericho,Sigowet/Soin,Private Enterprise (Institution),-0.36343,35.283312
16131,Sisenye Dispensary,Busia,Bunyala,Ministry of Health,0.4608,34.1073
17210,Ketitui Dispensary,Kericho,Ainamoi,Ministry of Health,-0.2995,35.2413
14518,GK Prison Dispensary (Nandi Central),Nandi,Nandi Central,Ministry of Health,0.1965,35.0985
21700,Ndengelwa Dispensary,Bungoma,Kanduyi,Ministry of Health,None,None
15791,Ahmadiya Hospital,Kakamega,Mumias East,Other Faith Based,0.281349,34.751401
15203,Moi Ndabi Dispensary,Nakuru,Naivasha,Ministry of Health,-0.8048,36.2461
15911,Kabuchai Health Centre,Bungoma,Kabuchai,Ministry of Health,0.6466,34.5601
14205,Angata Health Centre,Narok,Transmara West,Ministry of Health,-1.3765,34.7757
13789,Matata Nursing Hospital,Homa Bay,Rachuonyo South,Other Faith Based,-0.5039,34.7383
14503,Fr Andrian Heath Centre,Kajiado,Kajiado Central,Kenya Episcopal Conference-Catholic Secretariat,-1.841986,36.791349
12853,Yatta Health Center,Kitui,Kitui Rural,Ministry of Health,-1.46477,37.83375
21783,Misikhu Dispensary,Bungoma,Webuye West,Ministry of Health,None,None
18362,Khalala Dispensary,Bungoma,Webuye West,Ministry of Health,0.578148,34.559255
12519,Miambani Health Centre,Kitui,Kitui Central,Ministry of Health,-1.2617,38.1107
15747,Tulwet Health Centre,Trans Nzoia,Kiminini,Ministry of Health,0.9194,35.0125
15390,Oldanyati Health Centre,Narok,Transmara West,Ministry of Health,-0.918432,35.299013
15195,Mogogosiek Health Centre,Bomet,Konoin,Ministry of Health,-0.618,35.2738
18401,Kitengela Centre of Hope,Kajiado,Kajiado East,Private Practice - Nurse / Midwife,-1.4739,36.9668
16994,Kanzau Dispensary (Mbitini),Kitui,Kitui Rural,Ministry of Health,-1.325238,38.00357
11768,Samburu Health Centre,Kwale,Kinango,Ministry of Health,-3.7902,39.2698
17793,Barut Dispensary,Nakuru,Nakuru West,Local Authority,-0.19625,36.03383
14047,Riat Dispensary (Migori),Migori,Nyatike,Ministry of Health,-0.8362,34.2297
12238,Kathulumbi Health Centre,Makueni,Mbooni,Ministry of Health,-1.801198,37.708151
11499,Kongowea Health Centre,Mombasa,Nyali,Local Authority,-4.0414,39.6839
18071,Barsheba Medical Clinic,Mombasa,Kisauni,Private Practice - Clinical Officer,-4.06051,39.670281
12046,GK Prison Dispensary (Isiolo),Isiolo,Isiolo,Ministry of Health,0.34218,37.5705
20453,Magaoni Health Centre,Kwale,Msambweni,Ministry of Health,-4.3686999,39.32744562
30464,Voi Prison,Taita Taveta,Voi,Ministry of Health,-3.39605,38.55609
24209,Kaloleni GK Prison Dispensary,Kilifi,Kaloleni,Ministry of Health,-3.8144296,39.6042281
13696,Kiogoro Sub-County Hospital,Kisii,Nyaribari Chache,Ministry of Health,-0.7216,34.7819
13680,Keumbu S D Hospital,Kisii,Nyaribari Chache,Ministry of Health,-0.7337,34.8472
12982,Mary Immaculate Clinic Mukuru,Nairobi,Langata,Other Faith Based,-1.292066,36.821946
15937,Khayo Dispensary,Busia,Nambale,Ministry of Health,0.4608,34.1073
18370,Lomekwi Dispensary,Turkana,Turkana North,Ministry of Health,0.865298,36.452774
16769,Kadhola Dispensary,Homa Bay,Ndhiwa,Ministry of Health,-0.8112,34.2898
19446,Jamii Medical Clinic Mukuru,Nairobi,Embakasi South,Private Practice - Unspecified,-1.32614,36.89086
17433,Katulye Dispensary-Nzaui,Makueni,Makueni,Ministry of Health,-1.98491,37.59554
21771,Namarambi Dispensary,Bungoma,Webuye East,Ministry of Health,None,None
14685,Kangagetei Dispensary,Turkana,Turkana Central,Christian Health Association of Kenya,0.865298,36.452774
16121,Shitsitswi Health Centre,Kakamega,Butere,Ministry of Health,0.2633,34.5043
14965,Koilot Health Centre,Nandi,Nandi Hills,Ministry of Health,0.1445,35.2861
14710,Kapkelelwa Dispensary,Baringo,Baringo Central,Ministry of Health,0.37565,35.71838
13545,Entanda Dispensary,Kisii,Kitutu Chache North,Ministry of Health,-0.56873,34.84354
15348,Ngito Dispensary,Narok,Narok West,Other Faith Based,-0.9209,35.4841
13705,Kitare Health Centre,Homa Bay,Suba North,Ministry of Health,-0.506,34.3307
12142,Kalacha Sub County Referral Hospital (Chalbi),Marsabit,North Horr,Ministry of Health,2.344972,37.999111
14545,Hekima Dispensary,Nakuru,Nakuru East,Faith Based Organization,-0.3036,36.0846
17231,Kalimapus Dispensary,Turkana,Turkana Central,Ministry of Health,0.865298,36.452774
12342,Kisayani Health Centre,Kitui,Kitui South,Ministry of Health,-1.42771,38.10994
11208,Al Farooq Hospital,Mombasa,Mvita,Private Practice - Private Institution Academic,-4.06051,39.670281
14046,Riat Dispensary,Kisumu,Kisumu West,Ministry of Health,-0.021,34.6638
20402,Support For Addiction Prevention & Treatment In Africa,Nairobi,Starehe,Non-Governmental Organizations,-1.283736,36.82017072
17720,Lea Toto Mukuru,Nairobi,Embakasi South,Other Faith Based,-1.316,36.8692
13486,Arombe Dispensary,Migori,Suna West,Ministry of Health,-1.0348,34.3508
13951,Obanga Health Centre,Homa Bay,Suba South,Ministry of Health,-0.6865,34.0778
12377,Kivani Health Centre,Makueni,Kaiti,Ministry of Health,-1.801198,37.708151
17742,Kiti Dispensary,Nakuru,Nakuru East,Ministry of Health,-0.283028,36.075022
14437,Elgeyo Boader Dispensary,Uasin Gishu,Moiben,Ministry of Health,0.5047,35.4299
13505,Boige Health Centre,Kisii,South Mugirango,Ministry of Health,-0.675747,34.771766
14385,Chesoi Health Centre,Elgeyo Marakwet,Marakwet East,Kenya Episcopal Conference-Catholic Secretariat,1.0701,35.594
20156,Lunakwe Dispensary,Bungoma,Bumula,Ministry of Health,0.5219263,34.4354681
13569,Getongoroma Dispensary,Migori,Kuria West,Ministry of Health,-1.18309,34.41133
14639,Kaibei Dispensary,Trans Nzoia,Kwanza,Ministry of Health,3.95757,0.865757
11393,Shimo La Tewa Annex Dispensary (GK Prison),Mombasa,Mvita,Ministry of Health,2.865757,0.865757
15858,Chimoi Dispensary,Kakamega,Malava,Kenya Episcopal Conference-Catholic Secretariat,0.281349,34.751401
15198,Mogotio Catholic Dispensary,Baringo,Mogotio,Other Faith Based,0.581543,35.802044
12641,Neema Hospital,Kitui,Kitui Central,Private Enterprise (Institution),-1.325238,38.00357
15489,Rocco Dispensary,Nakuru,Gilgil,Ministry of Health,-0.7233,36.2822
27527,HOPE Worldwide  Savannah,Nairobi,Embakasi East,Non Governmental organisation,-1.287,36.9091
24339,Murang'a DICE,Murang'a,Murang'a south,Ministry of Health,-0.9367,37.1244
18612,Fremo Medical Centre,Nairobi,Dagoretti South,Private Enterprise (Institution),-1.292066,36.821946
16171,Gikono Dispensary,Murang'a,Kigumo,Ministry of Health,-0.993,37.1606
17894,Bwiti (Tiomin) Dispensary,Kwale,Lunga Lunga,Ministry of Health,-3.968514,39.54447
13492,Awendo Sub-County Hospital,Migori,Awendo,Ministry of Health,-0.8987,34.5346
15933,Khaoya Dispensary,Bungoma,Webuye East,Other Public Institution,0.578148,34.559255
12373,Kituruni Dispensary,Marsabit,Saku,Ministry of Health,2.344972,37.999111
19271,Swop Korogocho,Nairobi,Embakasi North,Non-Governmental Organizations,-1.2563,36.9061
14155,Ugina Health Centre,Homa Bay,Suba West,Ministry of Health,-0.4781,33.9864
13489,Atemo Health Centre,Homa Bay,Rachuonyo East,Christian Health Association of Kenya,-0.503,34.8329
15628,St Antony Health Centre,Nakuru,Nakuru North,Ministry of Health,-0.2571,36.1002
15630,St Boniface Dispensary,Nandi,Emgwen,Kenya Episcopal Conference-Catholic Secretariat,0.1833,34.9444
12296,Kieni Kia Ndege Dispensary,Meru,Imenti South,Ministry of Health,-3.7818,39.6771
11563,Marereni Dispensary,Kilifi,Magarini,Ministry of Health,-2.863,40.1448
12503,Mbiuni Health Centre,Machakos,Mwala,Ministry of Health,-1.2403,37.3933
14243,Barwessa Health Centre,Baringo,Baringo North,Ministry of Health,0.7031,35.6986
13621,Irondi Dispensary,Kisii,Nyaribari Chache,Ministry of Health,-0.675747,34.771766
13559,Gesima Health Centre,Nyamira,Masaba North,Ministry of Health,-0.6919,34.9921
12631,Naari Health Centre,Meru,Buuri,Ministry of Health,0.12634,37.56744
20826,Lorugum Sub County hospital,Turkana,Loima,Ministry of Health,2.876,35.2565
14017,Port Florence Hospital,Kisumu,Kisumu West,Private Enterprise (Institution),-0.0743,34.703
21503,Kerugoya GK prison ,Kirinyaga,Kirinyaga Central,Ministry of Health,-0.5032222,37.27916
19899,Eshiabwali Health Centre,Kakamega,Khwisero,Ministry of Health,0.281349,34.751401
16439,Matungulu Health Centre,Machakos,Matungulu,Ministry of Health,-1.2341,37.331
16983,Hope Compassionate (ACK) Dispensary,Homa Bay,Homa Bay Town,Christian Health Association of Kenya,-0.5342,34.4602
14683,Kanawoi Dispensary,Turkana,Turkana Central,Ministry of Health,0.865298,36.452774
19863,Nyawawa Dispensary,Homa Bay,Rangwe,Ministry of Health,-0.65,34.6
24969,Lvct Ruaka Dice,Kiambu,Kiambaa,Non-Governmental Organizations,-1.2001,36.7564
12723,Sagante Dispensary,Marsabit,Saku,Ministry of Health,2.33375,38.02284
12856,Yongela Dispensary,Kitui,Kitui South,Ministry of Health,-1.325238,38.00357
20914,St Catherine's Mission Ichuni,Kisii,Nyaribari Masaba,Kenya Episcopal Conference-Catholic Secretariat,-0.78742,34.9398184
14098,Sori Lakeside Nursing and Maternity Home,Migori,Nyatike,Christian Health Association of Kenya,-0.841,34.1547
12409,Kyasila (AIC) Dispensary,Machakos,Machakos,Christian Health Association of Kenya,-1.4379,37.2061
11704,Ndome Dispensary (Taita),Taita Taveta,Voi,Ministry of Health,-3.013948,38.211341
10340,Ihururu Health Centre,Nyeri,Tetu,Ministry of Health,-0.412,36.8907
12366,Kitui District Hospital,Kitui,Kitui Central,Ministry of Health,-1.3698,38.0137
16067,Namboboto Dispensary,Busia,Samia,Christian Health Association of Kenya,0.3045,34.0918
17437,Rambugu Dispensary (Rarieda),Siaya,Rarieda,Ministry of Health,-0.094,34.3562
14247,Benmac Clinic,Nakuru,Njoro,Private Enterprise (Institution),-0.283028,36.075022
11299,Dawida Maternity Nursing Home,Taita Taveta,Wundanyi,Private Enterprise (Institution),-3.013948,38.211341
10765,St. Mulumba mission hospital,Kiambu,Thika Town,Kenya Episcopal Conference-Catholic Secretariat,-1.055,37.1032
10458,Kamweti Dispensary,Kirinyaga,Kirinyaga East,Ministry of Health,-0.566715,37.320265
20554,Dr Mwangi,Nakuru,Nakuru East,Private Practice - General Practitioner,None,None
15434,Oltepesi Dispensary,Kajiado,Kajiado West,Ministry of Health,-1.558724,36.478973
15152,Matanya Dispensary,Laikipia,Laikipia East,Ministry of Health,-0.0505,36.9402
18395,Getrude Embakasi Clinic,Nairobi,Embakasi East,Private Practice - General Practitioner,-1.3301,36.8894
18211,Railway Dispensary (Kilindini),Mombasa,Mvita,Ministry of Health,-4.0482,39.6504
17243,Reale Hospital Eldoret,Uasin Gishu,Kesses,Other Faith Based,0.5342,35.0137
21840,Pap Oriang' Dispensary,Siaya,Alego Usonga,Ministry of Health,0.0025,34.3194
11441,Joy Medical Clinic (Mwatate),Taita Taveta,Mwatate,Private Enterprise (Institution),-3.013948,38.211341
12514,Merti Health Centre,Isiolo,Merti,Ministry of Health,0.340332,37.590252
14528,GK Remand Prison Dispensary Transnzoia,Trans Nzoia,Kitale,Ministry of Health,1.0205,34.9976
13869,Nyachogochogo Dispensary,Kisii,Bobasi,Other Faith Based,-0.675747,34.771766
11748,Rabai Rural Health Demonstration Centre,Kilifi,Rabai,Ministry of Health,-3.939,39.5664
14532,Goseta Dispensary,Trans Nzoia,Kwanza,Ministry of Health,1.09,35.0649
16787,Nduru Dispensary,Siaya,Alego Usonga,Ministry of Health,0.0106,34.3612
20317,Onoch Dispensary,West Pokot,Pokot Central,Ministry of Health,1.4633,35.4229
13989,Ongo Health Centre,Migori,Rongo,Ministry of Health,-0.6623,34.5712
13693,Kimonge Health Centre,Homa Bay,Rachuonyo East,Ministry of Health,-0.5183,34.8116
22981,Taragwiti Dispensary,Migori,Kuria West,Ministry of Health,None,None
15848,Chebukaka Health Centre,Bungoma,Kabuchai,Other Faith Based,0.578148,34.559255
10852,New Tumaini Health Centre,Nyandarua,Olkalou,Ministry of Health,-0.254,36.2924
11130,Ucheru Community Health Centre,Kirinyaga,Kirinyaga Central,Ministry of Health,-0.566715,37.320265
14825,Kemeloi Health Centre,Nandi,Aldai,Ministry of Health,0.0434,34.9153
31463,Bondo Youth Wellness Centre,Siaya,Bondo,Ministry of Health,None,None
15491,Romosha Health centre,Narok,Transmara West,Ministry of Health,-0.918432,35.299013
14103,St Camillus Mission Hospital,Migori,Nyatike,Kenya Episcopal Conference-Catholic Secretariat,-0.8123,34.1983
15777,Weonia Health Centre,Trans Nzoia,Kiminini,Ministry of Health,0.8388,34.8324
12787,Tawa Sub County Hospial,Makueni,Mbooni,Ministry of Health,-1.5478,37.4666
15192,Mochongoi Health Centre,Baringo,Marigat,Ministry of Health,0.31273,36.18598
13526,Chinato Health Centre,Migori,Kuria East,Ministry of Health,-1.28787,34.61433
18596,Kambu Model Health Centre,Makueni,Kibwezi East,Ministry of Health,-2.5976,38.0771
17770,Akemo Medical Clinic,Mombasa,Likoni,Private Practice - Nurse / Midwife,-4.06051,39.670281
15797,Amaase Dispensary,Busia,Teso South,Ministry of Health,0.5206,34.1823
14446,Emining Health Centre,Baringo,Mogotio,Ministry of Health,0.1436,35.8871
12475,Masii Health Centre,Machakos,Mwala,Ministry of Health,-1.458,37.4392
11288,Roka Medical Clinic,Kilifi,Kilifi North,Private Practice - Clinical Officer,-3.968514,39.54447
15763,Upper Solai Health Centre,Nakuru,Subukia,Ministry of Health,-0.1026,36.1274
11693,Mwapala Dispensary,Kwale,Matuga,Ministry of Health,-3.968514,39.54447
14845,Kiambogo Dispensary (Gilgil),Nakuru,Gilgil,Ministry of Health,-0.6021,36.1309
14611,Kabazi Sub County Hospital,Nakuru,Subukia,Ministry of Health,-0.0764,36.1679
23285,Chaani Catholic,Mombasa,Changamwe,Kenya Episcopal Conference-Catholic Secretariat,-4.0321,39.6282
15547,Sereolipi Health Centre,Samburu,Samburu East,Ministry of Health,1.1244,37.6199
13479,Ang’iya Dispensary,Homa Bay,Suba North,Ministry of Health,-0.4578,34.2765
14321,Chemolingot District Hospital,Baringo,East Pokot,Ministry of Health,0.98724,35.9877
14204,Sucos Hospital,Kajiado,Kajiado East,Private Enterprise (Institution),-1.558724,36.478973
17530,Umer Dispensary,Siaya,Ugenya,Ministry of Health,0.3016,34.3138
15757,Tuum Dispensary,Samburu,Samburu North,Ministry of Health,0.865298,36.452774
12907,Cotolengo Centre,Nairobi,Langata,Kenya Episcopal Conference-Catholic Secretariat,-1.33712,36.72622
12942,Family Care Medical Centre & Maternity,Nairobi,Langata,Non-Governmental Organizations,-1.292066,36.821946
20130,Kimeeni Dispensary,Makueni,Mbooni,Ministry of Health,-1.6939,37.7391
13445,Mandera West Sub County Hospital,Mandera,Mandera West,Ministry of Health,3.9339,41.843621
13768,Mangima SDA Health Centre,Homa Bay,Rachuonyo South,Christian Health Association of Kenya,-0.5595,34.7068
12700,Ontulili Dispensary,Meru,Buuri,Ministry of Health,0.022488,37.186632
15263,Muthegera Dispensary,Laikipia,Laikipia West,Ministry of Health,0.255549,36.225048
18398,Ajam Mission Health Centre,Kajiado,Kajiado West,Non-Governmental Organizations,-2.0744,36.7882
15011,Langas RCEA,Uasin Gishu,Kapseret,Other Faith Based,0.4808,35.2622
14052,Riokindo Health Centre,Kisii,Bomachoge Borabu,Christian Health Association of Kenya,-0.8849,34.7322
21787,Mulunguni Dispensary,Kilifi,Magarini,Ministry of Health,-2.979,39.7724
12883,Biafra Lions Clinic,Nairobi,Kamukunji,Private Practice - General Practitioner,-1.2823,36.8485
11445,Kadaina Community Dispensary,Kilifi,Kilifi North,Community,-3.968514,39.54447
13753,Magunga Health Centre,Homa Bay,Suba South,Ministry of Health,-0.6887,34.1483
12874,Avenue Hospital,Nairobi,Westlands,Private Enterprise (Institution),-1.292066,36.821946
12302,Kiirua Dispensary,Meru,Buuri,Ministry of Health,0.1193,37.5549
11259,Bomu Medical Centre (Likoni),Mombasa,Likoni,Private Enterprise (Institution),-4.0936,39.6497
20744,Lmarmaroi Dispensary,Samburu,Samburu East,Ministry of Health,None,None
11686,Mwambirwa Dispensary,Taita Taveta,Mwatate,Ministry of Health,-3.013948,38.211341
12420,Kyuso District Hospital,Kitui,Mwingi North,Ministry of Health,-0.5517,38.2181
14148,Ting'wangi Health Centre,Siaya,Alego Usonga,Ministry of Health,0.0245,34.2829
18720,House of Hope Medical Centre,Kisumu,Nyakach,Private Practice - General Practitioner,-0.7178,38.0747
17877,GK Prisons Thika,Kiambu,Thika Town,Ministry of Health,-1.0351,37.0777
13220,EDARP Donholm Clinic,Nairobi,Embakasi East,Kenya Episcopal Conference-Catholic Secretariat,-1.3017,36.8885
17826,J A Comenius Medical Clinic,Kwale,Matuga,Private Practice - Clinical Officer,-4.2336,39.5808
14146,Tinga Health Centre,Nyamira,Nyamira,Ministry of Health,-0.6061,34.8911
14142,Taracha Dispensary,Kisii,Nyaribari Chache,Ministry of Health,-0.3355,35.9394
12912,Dandora II Health Centre,Nairobi,Embakasi North,Local Authority,-1.2576,36.8878
13799,Uluthe Dispensary,Siaya,Ugunja,Ministry of Health,0.1759,34.372
13606,Homa Hills Health Centre,Homa Bay,Karachuonyo,Non-Governmental Organizations,-0.3538,34.4683
18176,Sex Workers Outreach Program (Kibra),Nairobi,Dagoretti South,Non Governmental organisation,-1.3242,36.7829
17157,Masendebale Dispensary,Busia,Butula,Ministry of Health,0.4608,34.1073
14265,Bondeni Sub County Hospital,Nakuru,Nakuru East,Ministry of Health,-0.29575,36.07952
11787,Shimba Hills Health Centre,Kwale,Matuga,Ministry of Health,-4.3577,39.4179
10825,Nazareth Hospital,Kiambu,Limuru,Kenya Episcopal Conference-Catholic Secretariat,-1.1361,36.7255
14241,Bartabwa Healty Centre,Baringo,Baringo North,Ministry of Health,0.83614,35.81038
14741,Kaplong Hospital,Bomet,Sotik,Kenya Episcopal Conference-Catholic Secretariat,-0.6772,35.1389
14223,Bahati Rural Health Centre,Nakuru,Nakuru North,Ministry of Health,-0.15402,36.15361
13259,Woodley Clinic,Nairobi,Kibra,Local Authority,-1.30227,36.78442
20096,MYSA VCT,Nairobi,Embakasi Central,Non-Governmental Organizations,-1.25746,36.91164
10459,Kandara sub district hospital,Murang'a,Kandara,Ministry of Health,-0.4759,37.1301
18675,Huhoini Dispensary,Laikipia,Laikipia West,Ministry of Health,-0.199985,36.375003
14001,Othoch Rakuom Dispensary,Migori,Nyatike,Ministry of Health,-1.0066,34.1734
11368,Eshu Dispensary,Kwale,Msambweni,Ministry of Health,-3.968514,39.54447
16971,KAGUNDUINI HEALTH CENTRE,Murang'a,Kandara,Ministry of Health,-0.89137,37.04731
23530,Nabulon Dispensary,Turkana,Turkana Central,Ministry of Health,-0.7027916,34.7387364
10887,North Kinangop Catholic Hospital,Nyandarua,Kinangop,Kenya Episcopal Conference-Catholic Secretariat,-0.5554,36.5535
12848,Wingemi Health Centre,Kitui,Mwingi Central,Ministry of Health,-1.325238,38.00357
11544,Majoreni Dispensary,Kwale,Lunga Lunga,Ministry of Health,-3.968514,39.54447
14522,GK Prisons Dispensary (Laikipia East),Laikipia,Nanyuki,Ministry of Health,0.0128,37.0275
22464,Mwangea Dispensary,Taita Taveta,Voi,Ministry of Health,-3.397305,38.5533587
17165,Ikonzo Model Health Centre,Busia,Butula,Ministry of Health,0.3439,34.2255
13514,Bosiango Health Centre,Nyamira,Nyamira,Ministry of Health,-0.64,34.9506
12360,kithuki health centre,Makueni,Makueni,Ministry of Health,-1.801198,37.708151
13561,Gesure Dispensary,Kisii,Bobasi,Ministry of Health,-0.675747,34.771766
13999,Otati Dispensary,Migori,Nyatike,Ministry of Health,-0.7677,34.2047
12004,Embu Provincial General Hospital,Embu,Manyatta,Ministry of Health,-0.5368,37.4518
17029,Segera Mission Dispensary,Laikipia,Laikipia North,Christian Health Association of Kenya,0.1518,36.8879
10063,Bethsaida (PCEA) Dispensary (Nyeri),Nyeri,Tetu,Christian Health Association of Kenya,-0.4262,36.9347
12528,Minugu Dispensary,Tharaka-Nithi,Muthambi,Christian Health Association of Kenya,-0.298069,37.669799
17242,Kamolo Dispensary,Busia,Teso North,Ministry of Health,0.5876,34.2944
17689,Viragoni Dispensary,Kilifi,Kaloleni,Ministry of Health,-3.968514,39.54447
11239,Bamburi Dispensary,Mombasa,Nyali,Local Authority,-4.0044,39.6984
22084,Equity Afia Buruburu,Nairobi,Makadara,Private Practice - General Practitioner,-1.2935698,36.8736413
15288,Nakuru Provincial General Hospital,Nakuru,Nakuru West,Ministry of Health,-0.2772,36.0681
20743,Lolkuniyani  Dispensary,Samburu,Samburu East,Ministry of Health,None,None
14926,Kiptangwanyi H/C,Nakuru,Gilgil,Ministry of Health,-0.55678,36.11696
13636,Jophas Clinic,Homa Bay,Rangwe,Private Enterprise (Institution),-0.6256,34.6225
12692,Nzeveni Health Centre,Makueni,Kibwezi East,Ministry of Health,-2.5945,37.9969
12586,Mutha Health Centre,Kitui,Kitui South,Ministry of Health,-2.0656,38.1777
20347,Kome Dispensary,Homa Bay,Ndhiwa,Ministry of Health,-0.6549,34.3787
16387,Mukangu Health Centre,Kirinyaga,Kirinyaga West,Ministry of Health,-0.566715,37.320265
16682,Tonymed Medical Clinic,Nakuru,Kuresoi South,Private Practice - Nurse / Midwife,-0.57171,35.61511
14394,Cmf Aitong Health Centre,Narok,Narok West,Other Faith Based,-1.1332,35.2508
13668,Kendu Sub District Hospital,Homa Bay,Rachuonyo North,Ministry of Health,-0.3707,34.6504
13515,Bosongo Hospital,Kisii,Kitutu Chache South,Private Enterprise (Institution),-0.675747,34.771766
21620,Machakha Dispensary,Bungoma,Sirisia,Ministry of Health,None,None
18086,Oriang' Alwala Dispensary,Kisumu,Seme,Ministry of Health,-0.1449,34.4816
11527,Lutsangani Dispensary,Kwale,Kinango,Ministry of Health,-4.0641,39.5136
14570,Tingwa Dispensary,Uasin Gishu,Ainabkoi,Private Enterprise (Institution),0.2184,35.5115
25224,Karare Health Centre,Marsabit,Saku,Ministry of Health,2.3354966,37.9752909
18543,Hope Worldwide Kenya VCT (Makadara),Nairobi,Makadara,Non-Governmental Organizations,-1.29293,36.86483
16489,Mayanja Dispensary,Bungoma,Kanduyi,Ministry of Health,0.6693,34.5281
24603,ALoete Disp,Busia,Teso North,Ministry of Health,None,None
21047,Orongo Dispensary,Kisumu,Kisumu East,Local Authority,-0.029384,34.494442
13642,Kolunga Dispensary,Homa Bay,Suba North,Community,-0.4578,34.2765
18564,Chianda Dispensary (Rarieda),Siaya,Rarieda,Ministry of Health,-0.256,34.3529
20379,Malongo Dispensary,Homa Bay,Suba South,Ministry of Health,-0.6417,34.0567
11593,Mbuwani Dispensary,Kwale,Msambweni,Ministry of Health,-3.968514,39.54447
10269,Githunguri health centre,Kiambu,Githunguri,Ministry of Health,-1.0574,36.7778
13494,Bande Dispensary,Migori,Nyatike,Ministry of Health,-1.0352,34.1977
11982,Dabel Health Centre,Marsabit,Moyale,Ministry of Health,2.344972,37.999111
12582,Musalala Dispensary,Makueni,Kilome,Ministry of Health,-1.77427,37.41477
18421,Katolo-Manyatta Dispensary,Kisumu,Nyando,Community,-0.029384,34.494442
16453,Jepkoyai Dispensary,Vihiga,Hamisi,Ministry of Health,0.095981,34.739828
13962,Ogande Dispensary,Homa Bay,Homa Bay Town,Christian Health Association of Kenya,-0.5883,34.5067
13875,Nyagoro Health Center,Homa Bay,Rangwe,Ministry of Health,-0.5156,34.5355
16800,Lea Toto Kangemi,Nairobi,Westlands,Non-Governmental Organizations,-1.2636,36.7494
11642,Mokowe Health Centre,Lamu,Lamu West,Ministry of Health,-2.252222,40.913056
14089,Simbi Kogembo Dispensary,Homa Bay,Rachuonyo North,Ministry of Health,-0.3647,34.6299
13172,Ruaraka Clinic,Nairobi,Kasarani,Ministry of Health,-1.2251,36.8806
11512,Lamu County Referral Hospital,Lamu,Lamu West,Ministry of Health,-2.2787,40.9066
12913,Dandora I Health Centre,Nairobi,Embakasi North,Local Authority,-1.2584,36.8839
12234,Kathithi Dispensary,Meru,Imenti North,Ministry of Health,0.0546,37.712
10786,Murungaru Health Centre,Nyandarua,Kinangop,Ministry of Health,-0.5848,36.4912
11559,Mambrui Dispensary,Kilifi,Magarini,Ministry of Health,-3.1183,40.1568
15516,Sakutiek Health Centre,Narok,Narok North,Ministry of Health,-0.8476,36.1484
13575,Girango Dispensary,Nyamira,Masaba North,Ministry of Health,-0.560304,34.927533
16988,Nyangweta Health Centre,Nyamira,Nyamira,Ministry of Health,-0.560304,34.927533
14721,Kapkoi Health Centre,Elgeyo Marakwet,Keiyo North,Other Faith Based,0.674319,35.501897
14176,Yokia Dispensary,Homa Bay,Suba West,Ministry of Health,-0.4371,34.0392
10368,Jamii Hospital,Nyeri,Mathira East,Private Enterprise (Institution),-0.479,37.1311
14989,Kopeeto Dispensary,West Pokot,Loima,Ministry of Health,0.865298,36.452774
19985,Child & Family Wellness Clinic,Kiambu,Kiambu Town,Other Faith Based,-1.1754,36.8304
15456,Panda Flowers Medical Clinic,Nakuru,Naivasha,Company Medical Service,-0.6747,36.4833
16408,Kiambiriria Dispensary (CDF),Nakuru,Molo,Community Development Fund,-0.283028,36.075022
11396,GK Prisons Clinic (Malindi),Kilifi,Malindi,Other Public Institution,-3.0672,40.1244
15081,Lopiding Sub County Hospital,Turkana,Turkana West,Ministry of Health,4.2053,34.3594
12029,Garbatulla District Hospital,Isiolo,Garbatulla,Ministry of Health,0.340332,37.590252
13570,Getongoroma Health Centre,Migori,Kuria East,Ministry of Health,-0.931723,34.568456
15289,Nakuru War Memorial Hospital,Nakuru,Nakuru West,Private Practice,-0.279436,36.078194
13493,Bama Hospital,Siaya,Alego Usonga,Private Enterprise (Institution),0.0567,34.2941
17608,Luucho Dispensary,Bungoma,Kabuchai,Ministry of Health,0.578148,34.559255
13704,Kisumu County Hospital,Kisumu,Kisumu Central,Ministry of Health,-0.1018,34.756
12601,Mutitu Sub-District Hospital,Kitui,Kitui East,Ministry of Health,-1.2272,38.1738
15349,Ngobit Dispensary,Laikipia,Laikipia East,Ministry of Health,-0.0881,36.5754
20030,Aina Dispensary,Meru,Tigania West,Other Faith Based,0.1154,37.7133
14513,GOK Farm (Nahrc) Dispensary,Nakuru,Gilgil,Ministry of Health,-0.66492,36.41933
15044,Lochoraikeny Dispensary,Turkana,Turkana Central,Ministry of Health,0.865298,36.452774
14178,AIC Litein Mission Hospital,Kericho,Bureti,Other Faith Based,-0.5862,35.1865
15913,Jumuia Mission Hospital Kaimosi,Vihiga,Hamisi,Other Faith Based,0.1318,34.8483
12091,Inyuu Dispensary,Kitui,Kitui East,Ministry of Health,-1.4396,38.1793
11760,Rumangao Dispensary,Taita Taveta,Voi,Christian Health Association of Kenya,-3.013948,38.211341
17989,St Anns Medical Centre,Kiambu,Kabete,Private Practice - Nurse / Midwife,-1.168864,36.826319
12534,Mitunguu Dispensary,Meru,Imenti South,Ministry of Health,-0.1057,37.7814
12472,Marsabit County Referral Hospital,Marsabit,Saku,Ministry of Health,2.3239,37.991
15508,Saboti Sub County Hospital,Trans Nzoia,Saboti,Ministry of Health,0.9375,34.8375
16985,Oneno Dispensary,Homa Bay,Rangwe,Ministry of Health,-0.5569,34.5484
18374,Ziani Dispensary,Kilifi,Kilifi South,Ministry of Health,-3.968514,39.54447
17889,Withare Dispensary,Laikipia,Laikipia East,Ministry of Health,-0.0503,36.7658
14579,Kapooka Health Centre,Turkana,Turkana West,Non-Governmental Organizations,3.73543,34.83956
20069,Osewre Dispensary,Kisumu,Seme,Ministry of Health,-0.1334,34.4444
12508,Mbooni Sub County Hospital,Makueni,Mbooni,Ministry of Health,-1.645,37.4722
13849,Ngegu Dispensary,Homa Bay,Rangwe,Ministry of Health,-0.4925,34.5102
14244,Base Medical Centre,Laikipia,Laikipia East,Armed Forces,-0.0311,37.1124
11466,Kibuyuni Dispensary,Kwale,Matuga,Ministry of Health,-3.968514,39.54447
17052,Ng'ong'a Dispensary,Migori,Awendo,Community Development Fund,-0.95299,34.54349
20044,Kisembe Dispensary,Kakamega,Navakholo,Ministry of Health,0.35586,34.61191
11601,Mgamboni Dispensary,Kilifi,Kaloleni,Ministry of Health,-3.968514,39.54447
15445,Oropoi Dispensary,Turkana,Turkana West,Kenya Episcopal Conference-Catholic Secretariat,0.865298,36.452774
12008,Endau Dispensary,Kitui,Kitui East,Ministry of Health,-1.325238,38.00357
17542,Bethania Clinic,Nakuru,Gilgil,Private Practice - Nurse / Midwife,-0.283028,36.075022
15421,Olokyin Health Centre,Bomet,Bomet East,Ministry of Health,-0.943,35.3863
13478,Aneko Dispensary,Migori,Nyatike,Ministry of Health,-0.98,34.15
13487,Asat Beach Dispensary,Kisumu,Seme,Ministry of Health,-0.1827,34.5185
22866,Africare Ltd NHIF clinic,Nairobi,Kibra,Private Practice - Private Company,-1.311418,36.7854027
13604,Holy Family Oriang Mission Dispensary,Homa Bay,Rachuonyo East,Kenya Episcopal Conference-Catholic Secretariat,-0.4454,34.9214
13865,Nyaburi Clinic,Migori,Suna West,Private Enterprise (Institution),-0.931723,34.568456
16204,Tumaini Medical Clinic (Marsabit),Marsabit,Saku,Christian Health Association of Kenya,2.3304,37.9916
13402,Mandera County Refferal Hospital,Mandera,Mandera East,Ministry of Health,3.9339,41.843621
21040,Muyafwa Dispensary,Busia,Matayos,Ministry of Health,None,None
14215,Arroket Dispensary,Bomet,Sotik,Private Enterprise (Institution),-0.6189,35.0732
15873,Elwasambi Dispensary,Kakamega,Mumias East,Ministry of Health,0.281349,34.751401
15690,Survey Dispensary,Laikipia,Laikipia North,Ministry of Health,0.255549,36.225048
15206,Moiben Health Centre,Uasin Gishu,Moiben,Ministry of Health,0.8189,35.3861
16191,Chalani Dispensary,Kilifi,Kaloleni,Ministry of Health,-3.968514,39.54447
15994,Malakisi Health Centre,Bungoma,Sirisia,Ministry of Health,0.6823,34.4209
14054,Riotanchi Health Centre,Kisii,Bonchari,Ministry of Health,-0.1696,35.689
16020,Mission of Mercy Clinic,Bungoma,Kanduyi,Faith Based Organization,0.576916,34.55349
10029,Anmer Dispensary,Kiambu,Kiambu Town,Ministry of Health,-1.137,36.8474
14013,Pap Kodero Health Centre,Siaya,Rarieda,Ministry of Health,-0.2492,34.3232
17825,Kakamega Grace  Medical Centre,Kakamega,Lurambi,Private Practice - Clinical Officer,0.2639,34.7521
14289,Chebangang Health Centre,Bomet,Konoin,Ministry of Health,-0.5488,35.2892
14302,Cheboyo Dispensary,Bomet,Chepalungu,Ministry of Health,-0.9385,35.139
13242,University of Nairobi Dispensary,Nairobi,Dagoretti North,Parastatal,-1.292066,36.821946
13009,Karura Health Centre (Kiambu Rd),Nairobi,Westlands,Local Authority,-1.2562,36.8429
25221,Coast General Teaching and Referral Hospital Vikwatani Outreach Centre,Mombasa,Kisauni,Ministry of Health,-4.0041934,39.68533842
13036,Kivuli Dispensary,Nairobi,Dagoretti South,Kenya Episcopal Conference-Catholic Secretariat,-1.2905,36.7274
12717,Ruiri Rural Health Demonstration Centre,Meru,Buuri,Ministry of Health,0.1585,37.409
11463,Kiangachinyi Dispensary,Taita Taveta,Mwatate,Ministry of Health,-3.013948,38.211341
15284,Nakalei Dispensary,Turkana,Turkana South,Christian Health Association of Kenya,0.865298,36.452774
20621,Kianda42 Hospital,Nairobi,Kibra,Private Practice - General Practitioner,-1.31095,36.776
12732,Mitaboni Mission Dispensary,Machakos,Kathiani,Private Enterprise (Institution),-1.3786,37.2496
15869,Ekitale Dispensary,Bungoma,Kanduyi,Ministry of Health,0.5557,34.6126
14015,Ponge Dispensary - Ndhiwa,Homa Bay,Ndhiwa,Ministry of Health,-0.8419,34.4556
21076,Roadside Wellness (Jomvu),Mombasa,Jomvu,Non - Governmental Organizations,-4.0092,39.5898
11555,Malindi District Hospital,Kilifi,Malindi,Ministry of Health,-3.2265,40.1247
13160,Redemeed Health Centre,Nairobi,Ruaraka,Ministry of Health,-1.2443,36.8851
16153,Tuikut Dispensary,Bungoma,Cheptais,Ministry of Health,0.578148,34.559255
13246,Uzima Dispensary,Nairobi,Ruaraka,Private Enterprise (Institution),-1.2553,36.8557
13385,Kotile Health Centre,Garissa,Ijara,Ministry of Health,-0.448915,39.661493
16423,Nyabioto Dispensary,Kisii,Bonchari,Ministry of Health,-0.675747,34.771766
12252,Kauma Health Centre,Kitui,Kitui West,Ministry of Health,-1.325238,38.00357
20172,Nyangajo Dispensary,Homa Bay,Rachuonyo North,Ministry of Health,-0.4044,34.646
19597,Health Source Medical Centre,Mombasa,Nyali,Private Practice - General Practitioner,-4.06051,39.670281
16234,Miathene District Hospital,Meru,Tigania West,Ministry of Health,0.1505,37.7911
13646,Kajieyi Dispensary,Homa Bay,Rachuonyo North,Ministry of Health,-0.3747,34.7403
11532,Madamani Dispensary,Kilifi,Ganze,Ministry of Health,-3.3944,39.7488
15792,Akichelesit Dispensary,Busia,Teso North,Ministry of Health,0.4608,34.1073
10312,Heni Health Centre,Nyandarua,Kinangop,Ministry of Health,-0.7839,36.5577
15824,Bumala B Health Centre,Busia,Butula,Ministry of Health,0.39,34.3501
10634,Kiriogo Dispensary,Nyandarua,Ndaragwa,Ministry of Health,-0.199985,36.375003
12803,Tiva Dispensary,Kitui,Kitui Central,Ministry of Health,-1.3851,37.9387
12693,Nziu Health Centre,Makueni,Makueni,Ministry of Health,-1.8161,37.5374
12673,Nthagaiya Catholic Dispensary,Embu,Runyenjes,Kenya Episcopal Conference-Catholic Secretariat,-0.469,37.5767
12500,Mbeu Sub-District Hospital,Meru,Tigania West,Ministry of Health,0.0587,37.8167
10044,Bamboo Health Centre,Nyandarua,Kinangop,Ministry of Health,-0.8628,36.5664
13965,Ogen Dispensary,Kisumu,Muhoroni,Ministry of Health,-0.0392,35.182
12365,Kitise Health Centre,Makueni,Makueni,Ministry of Health,-2.0587,37.8778
16664,Usoma Health Centre,Kisumu,Kisumu West,Local Authority,-0.1038,34.7198
14218,Assumption Sisters Dispensary,Elgeyo Marakwet,Keiyo North,Other Faith Based,0.7153,35.518
13423,Mandera North Sub county Hospital,Mandera,Mandera North,Ministry of Health,3.93331,41.22527
12675,Nthambiro Dispensary,Meru,Igembe Central,Ministry of Health,0.2496,38.0282
18874,Got Kamondi Dispensary,Homa Bay,Rachuonyo East,Ministry of Health,-0.4211,34.9119
11630,Mkundi Dispensary,Kwale,Matuga,Ministry of Health,-3.968514,39.54447
11977,Cottolengo Mission Hospital,Meru,Imenti Central,Kenya Episcopal Conference-Catholic Secretariat,-0.0025,37.7666
15617,Sosiot Health Centre,Kericho,Belgut,Ministry of Health,-0.361,35.1736
11887,Vyongwani Dispensary,Kwale,Matuga,Ministry of Health,-3.968514,39.54447
15019,Lelboinet Health Centre (Keiyo),Elgeyo Marakwet,Keiyo South,Ministry of Health,0.674319,35.501897
14118,St. Mark's Lela Health Centre,Kisumu,Kisumu West,Local Authority,-0.0736,34.6952
19206,North Star Alliance Wellness Centre,Uasin Gishu,Ainabkoi,Non-Governmental Organizations,0.2161,35.4326
19134,Kibirichia Health & Laboratory Services,Meru,Imenti North,Unknown,0.0927,37.5212
13051,Loco Dispensary,Nairobi,Mathare,Other Public Institution,-1.2935,36.8272
11839,Tausa Health Centre,Taita Taveta,Voi,Ministry of Health,-3.3416,38.5015
15068,Lolgorian Sub District Hosp,Narok,Transmara West,Ministry of Health,-1.2338,34.7998
13905,Nyambari Geke Dispensary,Nyamira,Manga,Ministry of Health,-0.66787,34.9121
12489,Matuu Mission Health Centre,Machakos,Yatta,Kenya Episcopal Conference-Catholic Secretariat,-1.1489,37.5489
14521,GK Prisons Dispensary (Kericho),Kericho,Ainamoi,Ministry of Health,-0.3668,35.2847
14059,St Mercelline Roo Dispensary (Suba),Homa Bay,Suba South,Other Faith Based,-0.5583,34.1255
12829,Uringu Health Centre,Meru,Tigania West,Ministry of Health,-0.293978,37.618555
16466,Kiritiri Health Centre,Embu,Mbeere South,Ministry of Health,-0.7811,37.7756
21136,Appex Hosp,Busia,Teso North,Private Practice - Clinical Officer,None,None
21822,Mukwa Dispensary,Bungoma,Bumula,Ministry of Health,None,None
13044,Langata Women Prison Dispensary,Nairobi,Langata,Ministry of Health,-1.3228,36.7766
16481,Imulama Dispensary,Kakamega,Ikolomani,Ministry of Health,0.281349,34.751401
12317,Kimutwa Dispensary,Machakos,Kalama,Ministry of Health,-1.5496,37.2554
13648,Kaluo Health Centre,Siaya,Alego Usonga,Ministry of Health,0.112,34.3344
10700,Mary Immaculate Hospital(Nyeri North),Nyeri,Kieni West,Kenya Episcopal Conference-Catholic Secretariat,-0.3301,36.9051
12795,Tharaka District Hospital,Tharaka-Nithi,Tharaka South,Ministry of Health,-0.158,37.975
13904,Nyambare Health Centre,Siaya,Alego Usonga,Christian Health Association of Kenya,0.1334,34.102
13568,Geteri Dispensary,Kisii,Nyaribari Masaba,Ministry of Health,-0.782208,34.877981
21287,Refuge Point International,Nairobi,Dagoretti North,Non-Governmental Organizations,-1.2899768,36.7876868
21705,Kuoyo Health Center,Kisumu,Kisumu East,Ministry of Health,-0.1022145,34.7803681
11745,Ndongo Purple Clinic,Taita Taveta,Taveta,Private Practice - Nurse / Midwife,-3.013948,38.211341
11932,Approved School Dispensary (Machakos),Machakos,Machakos,Ministry of Health,-1.5867,37.2578
17723,St Barkita Dispensary Utawala,Nairobi,Embakasi East,Kenya Episcopal Conference-Catholic Secretariat,-1.2776,36.9753
13885,Nyakuru Dispensary,Migori,Awendo,Ministry of Health,-0.7854,34.5091
13076,Mathari Hospital,Nairobi,Mathare,Ministry of Health,-1.261,36.8491
14023,Radier Dispensary,Siaya,Bondo,Ministry of Health,-0.025,34.0735
14668,Kamara Dispensary,Nakuru,Kuresoi North,Ministry of Health,-0.09659,35.68002
11775,Skans Health Care Centre,Mombasa,Kisauni,Private Practice - Unspecified,-4.06051,39.670281
10465,Kangari Health Centre,Murang'a,Kigumo,Ministry of Health,-0.7848,36.8679
19912,Matercare Maternity Hospital,Meru,Isiolo,Kenya Episcopal Conference-Catholic Secretariat,0.32728,37.56402
17931,Mirere Health Centre,Kakamega,Matungu,Ministry of Health,0.281349,34.751401
12277,Kiangondu Dispensary,Tharaka-Nithi,Chuka,Christian Health Association of Kenya,-0.321,37.6219
14027,Railways Dispensary (Kisumu),Kisumu,Kisumu Central,Ministry of Health,-0.1011,34.7482
13491,Awasi Mission Health Center,Kisumu,Nyando,Kenya Episcopal Conference-Catholic Secretariat,-0.1604,35.074
13759,Makindu Dispensary,Kisumu,Muhoroni,Ministry of Health,-1.0817,37.4292
13981,Omiro Dispensary,Homa Bay,Rachuonyo East,Ministry of Health,-0.453,34.8036
13745,Macalder Sub-County Hospital,Migori,Nyatike,Ministry of Health,-0.9663,34.2883
10043,Baari Health Centre,Nyandarua,Ndaragwa,Ministry of Health,-0.0105,36.4143
12347,Kisiiki Dispensary,Machakos,Yatta,Ministry of Health,-1.0867,37.4427
18949,Ushirika Medical Clinic Maara,Tharaka-Nithi,Mwimbi,Private Enterprise (Institution),-0.2293,37.6281
17113,Ebukoolo Dispensary,Vihiga,Emuhaya,Ministry of Health,0.095981,34.739828
16058,Mwihila Mission Hospital,Bungoma,Kanduyi,Other Faith Based,0.281349,34.751401
12561,Mukui Health Centre,Tharaka-Nithi,Mwimbi,Ministry of Health,-0.298069,37.669799
17650,SHOFCO Medical Clinic (Kibera),Nairobi,Kibra,Non-Governmental Organizations,-1.292066,36.821946
11689,Mwangatini Dispensary,Kilifi,Magarini,Ministry of Health,-3.968514,39.54447
13914,Nyamonye Mission Dispensary,Siaya,Bondo,Kenya Episcopal Conference-Catholic Secretariat,-0.0513,34.1379
13755,Magwagwa (SDA) Dispensary,Nyamira,Nyamira North,Christian Health Association of Kenya,-0.47202,35.0226
11995,Ekalakala Health Centre,Machakos,Masinga,Ministry of Health,-0.9727,37.4729
19592,New Canaan Idp Dispensary,Nakuru,Gilgil,Ministry of Health,-0.34115,36.15659
16066,Nambale Sub County Hospital,Busia,Nambale,Ministry of Health,0.4798,34.246
20089,Marist International University College Medical Clinic,Nairobi,Langata,Kenya Episcopal Conference-Catholic Secretariat,-1.3427,36.7281
12483,Mathuki Health Centre,Kitui,Mwingi Central,Ministry of Health,-1.0483,38.2364
14311,Chemaner  Health Centre (Bomet),Bomet,Bomet East,Ministry of Health,-0.7697,35.457
27815,Tassia Kwa Ndege Hospital,Nairobi,Embakasi East,Ministry of Health,-1.30408,36.90455
15251,Mulot Catholic Dispensary,Narok,Narok West,Kenya Episcopal Conference-Catholic Secretariat,-0.9399,35.4328
15272,Nacoharg Medical Centre,Nakuru,Naivasha,Non-Governmental Organizations,-0.283028,36.075022
13840,Ndere Health Centre,Siaya,Gem,Ministry of Health,-1.9469,37.8397
15193,Mogil Health Centre,Elgeyo Marakwet,Marakwet East,Ministry of Health,0.674319,35.501897
15714,Tegat  Sub-County Hospital,Bomet,Bomet East,Ministry of Health,-0.7836,35.4645
16816,Narumoru Catholic Dispensary,Nyeri,Kieni East,Ministry of Health,-0.186,37.0578
11714,Ngombeni Dispensary,Kwale,Matuga,Ministry of Health,-4.1283,39.6316
13685,Kiaruta Dispensary,Kisii,Bonchari,Ministry of Health,-0.3484,36.2243
12001,El-Molo Bay Dispensary,Marsabit,Laisamis,Ministry of Health,2.344972,37.999111
11712,Ngathini Dispensary,Kwale,Lunga Lunga,Ministry of Health,-3.968514,39.54447
10574,Kiburu Dispensary,Kirinyaga,Kirinyaga West,Ministry of Health,-0.566715,37.320265
13952,Ober Kabuoch Dispensary,Homa Bay,Ndhiwa,Ministry of Health,-0.7666,34.4396
14042,Rera Health Centre,Siaya,Gem,Ministry of Health,-0.0052,34.448
15358,Njoro Subcounty Hospital,Nakuru,Njoro,Ministry of Health,-0.3355,35.9394
14514,GK Farm Prisons Health Centre,Trans Nzoia,Saboti,Ministry of Health,0.9802,35.006
16989,Kiang'inda Health Centre,Nyamira,Nyamira,Ministry of Health,-0.560304,34.927533
16403,Total Dispensary,Nakuru,Kuresoi North,Ministry of Health,-0.16958,35.68896
12499,Mbenuu H Centre,Makueni,Makueni,Ministry of Health,-1.96432,37.47728
10461,Kandong'u Dispensary,Kirinyaga,Kirinyaga North/Mwea West,Ministry of Health,-0.6658,37.2946
12312,Kilili Health Center,Makueni,Kilome,Ministry of Health,-1.801198,37.708151
15897,Igara Dispensary,Busia,Nambale,Ministry of Health,0.4608,34.1073
13974,Olando Dispensary,Homa Bay,Rachuonyo North,Ministry of Health,-0.4325,34.6526
14734,Kaplamai Health Centre,Trans Nzoia,Cherangany,Ministry of Health,0.9877,35.1237
15678,Subukia Sub County Hospital,Nakuru,Subukia,Ministry of Health,0.0026,36.2304
15447,Oserian Health Centre,Nakuru,Naivasha,Ministry of Health,-0.8255,36.2987
20395,South Ngariama Dispensary,Kirinyaga,Kirinyaga South,Ministry of Health,-0.652895,37.45975
25575,LVCT Korogocho,Nairobi,Ruaraka,Non Governmental organisation,-1.2512,36.889
11366,St Raphael Health Centre,Tana River,Galole,Other Faith Based,-1.499,40.028
14140,Takawiri Dispensary,Homa Bay,Suba West,Ministry of Health,-0.4744,34.0865
16000,Mapengo Dispensary,Kakamega,Lugari,Ministry of Health,0.281349,34.751401
11711,Ngao Sub County Hospital,Tana River,Garsen,Ministry of Health,-2.412,40.2019
10895,Nyathuna Sub District Hospital,Kiambu,Kabete,Ministry of Health,-1.1863,36.6846
11385,Garsen Health Centre,Tana River,Garsen,Ministry of Health,-2.2708,40.1076
15772,Wangu Community Dispensary,Nakuru,Naivasha,Private Practice - Nurse / Midwife,-0.631,36.5092
15887,Esitsaba Dispensary,Vihiga,Luanda,Ministry of Health,0.095981,34.739828
15410,Olkokwe Health Centre,Baringo,Mogotio,Ministry of Health,0.581543,35.802044
13184,Shauri Moyo Clinic,Nairobi,Kamukunji,Local Authority,-0.3974,37.6815
16134,Soy Sambu Dispensary,Kakamega,Likuyani,Ministry of Health,0.281349,34.751401
15169,Meibeki Dispensary,Uasin Gishu,Moiben,Ministry of Health,0.582411,35.306218
23132,Pongwe/Kidimu Dispensary,Kwale,Lunga Lunga,Ministry of Health,-4.5488,39.3701
13665,Kehancha Nursing and Maternity Home,Migori,Kuria West,Private Enterprise (Institution),-0.931723,34.568456
10782,Muriranjas Sub District Hospital,Murang'a,Kahuro,Ministry of Health,-0.7432,36.9731
13887,Nyalenda Health Centre,Kisumu,Kisumu Central,Local Authority,-0.1226,34.7521
12870,Amurt Health Centre,Nairobi,Westlands,Non-Governmental Organizations,-1.2658,36.7378
15124,Maraigushu Dispensary,Nakuru,Naivasha,Ministry of Health,-0.283028,36.075022
10674,Makuyu Health Centre,Murang'a,Murang'a south,Ministry of Health,-0.8967,37.1875
10884,Njoki Dispensary,Nyeri,Mukurweini,Ministry of Health,-0.5656,37.0002
14346,Chepkorio Health Centre,Elgeyo Marakwet,Keiyo South,Ministry of Health,0.3854,35.5366
15475,Quadalupe Sisters Roret,Kericho,Bureti,Kenya Episcopal Conference-Catholic Secretariat,-0.36343,35.283312
13662,Kegogi Health Centre,Kisii,Kitutu Chache North,Ministry of Health,-0.5448,34.8419
11093,Thigio Dispensary (Kiambu West),Kiambu,Limuru,Ministry of Health,-1.1986,36.6048
14124,St Paul's Health Centre,Homa Bay,Homa Bay Town,Kenya Episcopal Conference-Catholic Secretariat,-0.5228,34.4624
14837,Keringet Health Centre,West Pokot,West Pokot,Ministry of Health,1.2115,35.0491
20580,National Virology Reference Lab,Nairobi,Kibra,Ministry of Health,-1.3045,36.8064
13658,Kauma Health Centre,Homa Bay,Rachuonyo East,Ministry of Health,-0.4041,34.8234
15049,Lodwar County Referral Hospital,Turkana,Turkana Central,Ministry of Health,3.122,35.6016
11092,Thiba Health Centre,Kirinyaga,Kirinyaga North/Mwea West,Ministry of Health,-0.69,37.346
11763,Sagaighu Dispensary,Taita Taveta,Mwatate,Ministry of Health,-3.013948,38.211341
15876,Emuhaya Sub County Referral Hospital,Vihiga,Luanda,Ministry of Health,0.1126,34.633
17485,Moi Barracks,Uasin Gishu,Turbo,Armed Forces,0.6567514,35.1644361
17532,Uhembo Dispensary,Siaya,Alego Usonga,Ministry of Health,0.0833,34.1139
14500,Flourspar Health Centre,Elgeyo Marakwet,Keiyo South,Private Enterprise (Institution),0.3228,35.6426
13751,Magina Health Centre,Homa Bay,Ndhiwa,Ministry of Health,-0.6982,34.5185
15347,Nginyang Health Centre,Baringo,Tiaty East,Ministry of Health,0.581543,35.802044
17711,Ngeri Dispensary,Homa Bay,Suba South,Ministry of Health,-0.5982,34.104
18142,Urafiki Medical Clinic,Kajiado,Kajiado East,Private Enterprise (Institution),-0.7823,34.8935
14181,3KR Health Centre,Nakuru,Nakuru East,Armed Forces,-0.2966,36.1453
13475,Amatierio Health Centre,Nyamira,Borabu,Ministry of Health,-0.47118,34.94123
13538,Egetonto Dispensary (Gucha),Kisii,Bomachoge Chache,Ministry of Health,-0.74327,34.70785
13411,Modogashe Hospital,Garissa,Lagdera,Ministry of Health,0.73257,39.18564
15188,Mirugi Kariuki Sub County Hospital,Nakuru,Nakuru East,Ministry of Health,-0.374,36.1503
10681,Manunga Health Centre,Nyandarua,Kipipiri,Ministry of Health,-0.3998,36.4949
18876,Kachuth Dispensary,Homa Bay,Ndhiwa,Ministry of Health,-0.745,34.3044
17233,Maweni CDF Dispensary (Kongowea),Mombasa,Nyali,Ministry of Health,-4.06051,39.670281
14136,Suna Ragana Dispensary,Migori,Suna West,Ministry of Health,-1.1054,34.4717
10627,Kiria-Ini Mission Hospital,Murang'a,Mathioya,Ministry of Health,-0.6025,36.953
17597,Mugomari Dispensary,Kakamega,Shinyalu,Community,0.281349,34.751401
18346,Kamukuywa Dispensary,Bungoma,Kimilili,Ministry of Health,0.7803,34.7901
20568,Obware Dispensary,Migori,Nyatike,Ministry of Health,-0.9617211,34.2951431
18550,Maseki Dispensary-Kitui West,Kitui,Kitui West,Ministry of Health,-1.325238,38.00357
16367,Alale Health Centre,West Pokot,Pokot North,Ministry of Health,2.25005,35.02779
14034,Rangenyo Health Centre,Nyamira,Nyamira,Christian Health Association of Kenya,-0.560304,34.927533
14050,Rigoko Dispensary,Nyamira,Borabu,Ministry of Health,-0.80516,34.99954
12235,Kathonzweni Catholic Dispensary,Makueni,Makueni,Kenya Episcopal Conference-Catholic Secretariat,-1.801198,37.708151
11678,Muyeye Medical Clinic,Kilifi,Malindi,Private Practice - Clinical Officer,-3.2416,40.1149
27196,Gatina Dispensary (Dagoretti),Nairobi,Dagoretti North,Ministry of Health,-1.27594,36.75225
11240,Bamburi Medicare,Mombasa,Nyali,Private Enterprise (Institution),-4.0033,39.6986
15891,GK Prisons Dispensary (Busia),Busia,Matayos,Other Public Institution,0.453,34.1145
16796,AAR Clinic Sarit Centre (Westlands),Nairobi,Westlands,Private Enterprise (Institution),-1.292066,36.821946
12917,Diwopa Health Centre,Nairobi,Embakasi Central,Kenya Episcopal Conference-Catholic Secretariat,-1.2695,36.9143
21965,Holy Rosary Health Centre,Trans Nzoia,Cherangany,Kenya Episcopal Conference-Catholic Secretariat,1.0094,35.1009
13169,EDARP Ruai Clinic,Nairobi,Kasarani,Kenya Episcopal Conference-Catholic Secretariat,-1.2692,36.991
22257,Kineni Health Centre,Kisii,Bomachoge Chache,Ministry of Health,-0.7934871,35.0462219
15232,Mother Kevin Hospital (Catholic),Nakuru,Nakuru West,Ministry of Health,-0.2871,36.0488
15200,Soin sub county hospital,Nakuru,Rongai,Ministry of Health,-0.0244,35.967
16710,Kayaya Dispensary,Bungoma,Webuye West,Other Public Institution,0.578148,34.559255
16165,Your Family Clinic,Busia,Matayos,Private Practice - Nurse / Midwife,0.4608,34.1073
11831,Statehouse Dispensary,Mombasa,Mvita,Ministry of Health,-4.0678,39.6809
13593,Gotichaki Dispensary,Kisii,South Mugirango,Ministry of Health,-0.77408,34.64925
12657,Nguluni Health Centre,Machakos,Matungulu,Ministry of Health,-1.28,37.2792
15815,Bugina Health Centre,Vihiga,Sabatia,Ministry of Health,0.149,34.7678
14066,Sango Rota Health centre,Kisumu,Nyakach,Ministry of Health,-0.3442,34.889
15227,Mosiro Dispensary,Narok,Narok East,Ministry of Health,-1.39141,36.11648
10509,Kasuku Health Centre,Nyandarua,Oljororok,Ministry of Health,-0.135,36.378
14567,Illasit Medical Clinic,Kajiado,Loitokitok,Private Practice - Clinical Officer,-2.958,37.5703
13369,Iftin Sub-District Hospital,Garissa,Garissa,Ministry of Health,-0.448915,39.661493
13750,Mageta Health Center,Siaya,Bondo,Ministry of Health,-0.1325,34.0103
13062,Maria Immaculata Health Centre,Nairobi,Dagoretti North,Kenya Episcopal Conference-Catholic Secretariat,-1.2897,36.7649
17173,Onyinjo Dispensary,Kisumu,Seme,Ministry of Health,-0.029384,34.494442
14331,Chepchabas Dispensary,Bomet,Konoin,Ministry of Health,-0.523,35.2604
13019,KEMRI VCT(CRDR),Nairobi,Kibra,Ministry of Health,-1.3109,36.8036
15892,GK Prisons Dispensary (Kakamega Central),Kakamega,Lurambi,Ministry of Health,0.2728,34.7531
14145,Tindereti Dispensary,Nyamira,Borabu,Ministry of Health,-0.78646,34.9809
18195,Nairobi Women Hospital Ongata Rongai,Kajiado,Kajiado North,Private Enterprise (Institution),-1.558724,36.478973
10763,Mukurweini Sub District Hospital,Nyeri,Mukurweini,Ministry of Health,-0.5624,37.045
13954,Ober Kamoth Sub County Hospital,Kisumu,Kisumu West,Local Authority,-0.1152,34.6095
13944,Nyathengo Dispensary,Siaya,Alego Usonga,Ministry of Health,0.0518,34.362
15266,Mwenje Dispensary,Laikipia,Laikipia West,Ministry of Health,0.4423,36.2918
13796,Mawere Dispensary,Siaya,Bondo,Ministry of Health,-0.0465,34.3443
11124,Tumutumu (PCEA) Hospital,Nyeri,Mathira West,Christian Health Association of Kenya,-0.4855,37.0795
11718,Njukini Health Centre,Taita Taveta,Taveta,Ministry of Health,-3.1893,37.7248
16064,Namagara Dispensary,Kakamega,Malava,Ministry of Health,0.281349,34.751401
21036,Khajula Dispensary,Busia,Bunyala,Ministry of Health,None,None
22500,Bukokholo Dispensary,Bungoma,Sirisia,Ministry of Health,None,None
13078,Mathare Police Deport,Nairobi,Mathare,Ministry of Health,-1.292066,36.821946
12526,Mikumbune Sub-District Hospital,Meru,Imenti South,Ministry of Health,-0.0781,37.6178
12301,Kiini Health Centre,Tharaka-Nithi,Muthambi,Ministry of Health,-0.298069,37.669799
16108,Shihalia Dispensary,Kakamega,Ikolomani,Ministry of Health,0.18853,34.704223
13701,Kisegi SDH,Homa Bay,Suba South,Ministry of Health,-0.6469,34.0571
14623,Kabiyet Sub County Hospital,Nandi,Mosop,Ministry of Health,0.4052,35.0847
14020,Rabuor Sub county Hospital,Kisumu,Nyando,Ministry of Health,-0.1533,34.8299
22752,Lwakhakha Dispensary,Bungoma,Sirisia,Ministry of Health,None,None
15380,Nys Karate Dispensary,Nakuru,Naivasha,Ministry of Health,-0.64876,36.48932
10378,Jkuat Hospital,Kiambu,Juja,Ministry of Health,-1.1018,37.0144
12929,Dreams Centre Dispensary (Langata),Nairobi,Langata,Kenya Episcopal Conference-Catholic Secretariat,-1.3411,36.7544
18557,Tumaini DICE -  Asembo Bay (Rarieda),Siaya,Rarieda,Non-Governmental Organizations,-0.1837,34.3859
14880,Kimsaw Medical Clinic,Nakuru,Nakuru West,Private Practice - Clinical Officer,-0.2972,36.0388
19617,Dandora Medical and Laboratory Services (Kojwang),Nairobi,Embakasi North,Private Practice - General Practitioner,-1.2459,36.9071
16151,Tigoi Health Centre,Vihiga,Hamisi,Ministry of Health,0.0059,34.7255
13769,Manyatta (SDA) Dispensary,Homa Bay,Rangwe,Christian Health Association of Kenya,-0.5058,34.6199
15117,Makutano Health Centre (Turkana West),Turkana,Turkana West,Ministry of Health,3.6609,35.4116
15089,St Elizabeth Lorugum Health Centre,Turkana,Loima,Kenya Episcopal Conference-Catholic Secretariat,2.9048,35.2055
13855,Nguku Dispensary,Homa Bay,Ndhiwa,Ministry of Health,-0.8029,34.3659
12362,Kithyoko Health Centre,Machakos,Masinga,Ministry of Health,-1.0462,37.8397
13001,Kangemi Health Centre,Nairobi,Westlands,Local Authority,-1.2671,36.7492
13845,Ndori Health Centre,Siaya,Rarieda,Ministry of Health,-0.0698,34.3775
13801,Medicare Medical Clinic (Manga),Nyamira,Manga,Private Enterprise (Institution),-0.560304,34.927533
13971,Ojola Sub County Hospital,Kisumu,Kisumu West,Local Authority,-0.0663,34.6455
15177,Merewet Dispensary,Uasin Gishu,Soy,Ministry of Health,0.7266,35.32
17121,Mama Plister Blair Health Centre,Kisumu,Muhoroni,Private Enterprise (Institution),-0.1289,34.9655
13644,Kagwa Health Centre,Siaya,Rarieda,Ministry of Health,-0.2285,34.2567
13572,Gianchore Health Centre,Nyamira,Nyamira,Ministry of Health,-0.58,34.88
23738,Kory Family Hospital Kimilili,Bungoma,Kimilili,Private Practice - Private Company,None,None
12871,APTC Health Center,Nairobi,Embakasi East,Armed Forces,-1.2872,36.9568
13876,Nyagoto Dispensary,Kisii,Kitutu Chache North,Ministry of Health,-0.54442,34.80708
20692,Vigetse Medical Clinic,Vihiga,Vihiga,Nursing Council of Kenya,-0.0006,34.6735
10199,Gaichanjiru Hospital,Murang'a,Kandara,Ministry of Health,-0.7678,37.0672
11076,Subuku Dispensary (Nyandarua North),Nyandarua,Ndaragwa,Ministry of Health,-0.199985,36.375003
13988,Ongito Dispensary,Migori,Uriri,Ministry of Health,-0.8791,34.3634
12445,Magutuni District Hospital,Tharaka-Nithi,Mwimbi,Ministry of Health,-0.2251,37.7365
12232,Kathigu Health Centre,Meru,Imenti South,Ministry of Health,-0.6743,34.7737
15381,Nzoia Health centre,Trans Nzoia,Cherangany,Ministry of Health,1.015835,35.003314
10210,Gatei Dispensary,Nyeri,Mathira East,Ministry of Health,-0.4019,37.1516
11770,Santa Maria Medical Clinic,Mombasa,Likoni,Private Enterprise (Institution),-4.06051,39.670281
16487,Ruanda Dispensary,Bungoma,Kabuchai,Ministry of Health,0.578148,34.559255
13530,Chuthber Dispensary,Homa Bay,Rachuonyo North,Ministry of Health,-0.3989,34.7237
10476,Karaba Health Center,Nyeri,Mukurweini,Ministry of Health,-0.5802,36.9203
16018,Milo Health Centre,Bungoma,Webuye West,Ministry of Health,0.5328,34.7227
17174,Lwala Kadawa Health Centre,Kisumu,Kisumu West,Ministry of Health,-0.0801,34.6219
15999,Manyala Sub-District Hospital,Kakamega,Butere,Ministry of Health,0.1604,34.4526
18877,Otange Dispensary,Homa Bay,Ndhiwa,Ministry of Health,-0.8181,34.3787
15576,Simotwet Dispensary,Bomet,Konoin,Company Medical Service,-0.918432,35.299013
18578,Thigirichi Mukui,Kirinyaga,Kirinyaga West,Ministry of Health,-0.566715,37.320265
12618,Mwala Subcounty Hospital,Machakos,Mwala,Ministry of Health,-1.3489,37.4523
10806,Mwea Medical Centre,Kirinyaga,Kirinyaga South,Private Practice - General Practitioner,-0.566715,37.320265
12930,Eastleigh Health Centre,Nairobi,Kamukunji,Local Authority,-1.2718,36.8509
12297,Kiereni Dispensary,Tharaka-Nithi,Chuka,Ministry of Health,-0.298069,37.669799
17127,Manoa Dispensary,Taita Taveta,Mwatate,Ministry of Health,-3.59492,38.33253
14138,Swindon Clinic,Homa Bay,Rachuonyo South,Private Enterprise (Institution),-0.4871,34.77
13712,Kokwanyo Health Centre,Homa Bay,Rachuonyo East,Ministry of Health,-0.4121,34.7863
13620,Iranda Health Centre,Kisii,Kitutu Chache South,Ministry of Health,-0.627,34.749
14179,Nandi Hills District Hospital,Nandi,Nandi Hills,Ministry of Health,0.104,35.1836
11244,Baolala Dispensary,Kilifi,Malindi,Ministry of Health,-3.1796,39.7856
15084,Lorengelup Dispensary,Turkana,Turkana Central,Ministry of Health,0.865298,36.452774
27276,Soweto Kayole health center,Nairobi,Embakasi East,Ministry of Health,-0.2411655,36.89128941
15959,Kuvasali Health Centre,Kakamega,Malava,Ministry of Health,0.281349,34.751401
18601,St Joseph Mission Dispensary Chumvini,Taita Taveta,Taveta,Kenya Episcopal Conference-Catholic Secretariat,-3.013948,38.211341
13536,Eberege Dispensary,Kisii,Bomachoge Borabu,Ministry of Health,0.3088,35.7167
16085,Nzoia Sugar Dispensary,Bungoma,Kanduyi,Company Medical Service,0.56803,34.65321
13171,Ruai Health Centre,Nairobi,Kasarani,Local Authority,-1.2564,36.9938
17837,Gituamba Community Dispensary,Kiambu,Gatundu North,Community Development Fund,-0.9065,36.861
11682,Mwachinga Dispensary,Kwale,Kinango,Community,-3.968514,39.54447
15139,Marinyin Dispensary,Bomet,Konoin,Private Enterprise (Institution),-0.36343,35.283312
14065,Samora Medical centre,Nyamira,Nyamira North,Private Enterprise (Institution),-0.560304,34.927533
11838,Taru Health Centre,Kwale,Kinango,Ministry of Health,-3.754,39.1423
11436,Jomvu Model Health Centre,Mombasa,Jomvu,Ministry of Health,-4.0045,39.5993
15860,Chwele Sub County Hospital,Bungoma,Kabuchai,Ministry of Health,0.7344,34.5779
17765,Singawa Medical Centre,Mombasa,Likoni,Private Practice - Nurse / Midwife,-4.06051,39.670281
16546,Gombato,Kwale,Msambweni,Ministry of Health,-4.2712,39.5795
16432,Donyo Sabuk Dispensary,Machakos,Matungulu,Ministry of Health,-1.0846,37.2531
15961,Likuyani Sub-County Hospital,Kakamega,Likuyani,Ministry of Health,0.7108,35.1069
13817,Mnara Dispensary,Kisumu,Muhoroni,Ministry of Health,-0.16969,35.23274
15079,Loosuk  Health Centre,Samburu,Samburu Central,Ministry of Health,1.02094,36.5885
13108,Nairobi Deaf (Liverpool),Nairobi,Starehe,Non-Governmental Organizations,-1.286,36.8261
13630,Itumbe Dispensary,Kisii,Bobasi,Ministry of Health,-0.75783,34.77571
16445,Kariko Dispensary,Kirinyaga,Kirinyaga Central,Ministry of Health,-0.566715,37.320265
12210,Kasunguni Dispensary,Kitui,Kitui East,Ministry of Health,-1.325238,38.00357
13886,Nyakwana Dispensary,Kisii,Nyaribari Chache,Ministry of Health,-0.75938,34.8078
13826,Motontera Dispensary,Nyamira,Nyamira,Ministry of Health,-0.497,34.87824
20209,Onyuongo Dispensary,Kisumu,Nyakach,Ministry of Health,-0.3217484,35.0022714
11771,Sau Health Services,Mombasa,Likoni,Private Enterprise (Institution),-4.0978,39.6432
10893,Nyakianga Health Centre,Murang'a,Mathioya,Ministry of Health,-0.6394,36.9575
21283,Nairobi Women's Hospital Kitengela,Kajiado,Kajiado East,Private Practice - General Practitioner,-1.4883,36.953
15276,Naikara Health Centre,Narok,Narok West,Other Faith Based,-0.918432,35.299013
11955,Bishop Kioko Catholic Hospital,Machakos,Machakos,Kenya Episcopal Conference-Catholic Secretariat,-1.5264,37.2628
12681,Nuu Hospital,Kitui,Mwingi Central,Ministry of Health,-1.0599,38.3588
10252,Gichuru Dispensary,Kiambu,Kikuyu,Ministry of Health,-1.2141,36.6604
15593,Sirwa Dispensary (Mogotio),Baringo,Mogotio,Ministry of Health,0.17711,35.77176
18432,Makongeni dispensary,Kiambu,Thika Town,Local Authority,-1.0623,37.1088
14369,Chepterwai Sub-District Hospital,Nandi,Mosop,Ministry of Health,0.5229,34.9273
13942,Nyasike Dispensary,Kisii,Nyaribari Masaba,Ministry of Health,-0.560304,34.927533
11687,Mwanda Dispensary,Kwale,Kinango,Ministry of Health,-3.88865,39.4334
14932,Kiptulwa Health Centre,Bomet,Sotik,Ministry of Health,-0.7447,35.1749
11404,Gotani Dispensary,Kilifi,Kaloleni,Ministry of Health,-3.7863,39.5403
10236,Gatura HC,Murang'a,Gatanga,Ministry of Health,-0.8628,36.8621
13978,Ombek Health Centre,Homa Bay,Rachuonyo South,Ministry of Health,-0.5684,34.6642
17256,Mavivye Model Health Centre,Makueni,Kilome,Ministry of Health,-1.79044,37.28143
14659,Kalalu Dispensary,Laikipia,Laikipia East,Ministry of Health,0.0823,37.1663
12195,Karama Dispensary,Meru,Tigania East,Ministry of Health,0.24174,37.82739
18099,Nadunga Dispensary,Turkana,Turkana North,Ministry of Health,3.57793,35.18479
15955,Kongoni Health Centre,Kakamega,Likuyani,Ministry of Health,0.7801,35.1253
16409,St Joseph Nursing Home,Nakuru,Kuresoi North,Private Practice,-0.24752,35.72708
30176,GK prison health center( Rachuonyo North),Homa Bay,Rachuonyo North,Ministry of Health,-0.50603,34.7336
17512,Lihanda Health Centre,Siaya,Gem,Non-Governmental Organizations,0.0404,34.5056
11756,Ribe Dispensary,Kilifi,Rabai,Ministry of Health,-3.968514,39.54447
14459,Ngilai Dispensary,Samburu,Samburu East,Non-Governmental Organizations,0.865298,36.452774
15569,Sikhendu Medical Clinic,Trans Nzoia,Kiminini,Private Enterprise (Institution),1.015835,35.003314
16154,Turbo Forest Dispensary,Kakamega,Likuyani,Ministry of Health,0.281349,34.751401
15153,Matasia Nursing Home,Kajiado,Kajiado North,Private Enterprise (Institution),-1.558724,36.478973
16435,Mukunike Dispensary,Machakos,Kangundo,Ministry of Health,-1.3361,37.3163
19683,St Joseph's Boys National School Disp,Trans Nzoia,Kiminini,Kenya Episcopal Conference-Catholic Secretariat,0.9795,34.9743
16457,Kaptisi Dispensary,Vihiga,Hamisi,Ministry of Health,0.095981,34.739828
12822,Ukia Dispensary,Makueni,Kaiti,Ministry of Health,-1.801198,37.708151
14749,Kapsabet County Referral Hospital,Nandi,Emgwen,Ministry of Health,0.2024,35.103
11009,Silibwet Health Centre (Nyandaruawest),Nyandarua,Oljororok,Ministry of Health,-0.0386,36.2903
14341,Chepkigen Dispensary,Uasin Gishu,Kesses,Ministry of Health,0.3952,35.3308
15077,Longisa County Referral  Hospital,Bomet,Bomet East,Ministry of Health,-0.8607,35.3905
14615,Kabichbich Health Centre,West Pokot,Pokot South,Ministry of Health,1.2098,35.2771
12816,Tuuru Catholic Health Centre,Meru,Igembe Central,Faith Based Organization,0.293953,37.901077
15304,Nanyuki Cottage Hospital,Laikipia,Laikipia East,Private Enterprise (Institution),-0.0013,37.094
13558,Gesabakwa Health Centre,Kisii,Bobasi,Ministry of Health,-0.89926,34.82809
14004,Our Lady of Lourdes Dispensary (Gucha),Kisii,Bomachoge Chache,Kenya Episcopal Conference-Catholic Secretariat,-0.675747,34.771766
15974,Lunyito Dispensary,Kakamega,Lugari,Ministry of Health,0.281349,34.751401
11097,Thika Nursing Home,Kiambu,Thika Town,Ministry of Health,-1.0404,37.0692
17486,12 Engineers,Kiambu,Thika Town,Ministry of Health,-1.0735,37.1441
11412,Hongwe Catholic Dispensary,Lamu,Lamu West,Kenya Episcopal Conference-Catholic Secretariat,-2.2522,40.9131
14169,Wakula Health Centre,Homa Bay,Suba West,Ministry of Health,-0.4507,33.9885
15970,Lumani Dispensary,Kakamega,Lugari,Ministry of Health,0.281349,34.751401
15969,Lumakanda Sub County Hospital,Kakamega,Lugari,Ministry of Health,0.6348,34.9762
13072,Mary Immaculate Sisters Dispensary,Nairobi,Makadara,Other Faith Based,-1.2921,36.8574
15565,Sigor Sub-District Hospital,Bomet,Chepalungu,Ministry of Health,-0.9142,35.2981
11359,Dzikunze Dispensary,Kilifi,Ganze,Ministry of Health,-3.968514,39.54447
16168,Revival Home Based Care Clinic,Nairobi,Langata,Other Faith Based,-1.292066,36.821946
16480,Kabuodo Dispensary,Busia,Samia,Ministry of Health,0.4608,34.1073
21404,Teens Watch Centre,Kwale,Msambweni,Non-Governmental Organizations,-4.2777,39.5847
14661,St. Bridgit Kalemuyang Dispensary,Turkana,Loima,Kenya Episcopal Conference of Catholic Bishops,2.7357,35.3643
10470,Kangema Sub District Hopispital,Murang'a,Murang'a West,Ministry of Health,-0.6896,36.9715
11764,Sagala Health Centre,Taita Taveta,Voi,Ministry of Health,-3.4935,38.5821
13738,Lumumba Sub County Hospital,Kisumu,Kisumu Central,Local Authority,-0.0997,34.766
12697,Oldonyiro Dispensary (Isiolo),Isiolo,Isiolo,Ministry of Health,0.340332,37.590252
14107,Uhuyi Dispensary,Siaya,Ugunja,Ministry of Health,0.2076,34.4448
17182,Givole Dispensary,Vihiga,Hamisi,Ministry of Health,0.073,34.802
11248,Baricho Dispensary,Kilifi,Magarini,Ministry of Health,-3.968514,39.54447
11582,Maunguja Dispensary,Mombasa,Kisauni,Local Authority,-4.06051,39.670281
16028,Mukhe Dispensary,Bungoma,Webuye West,Other Public Institution,0.578148,34.559255
13671,Kenyambi Health Centre,Kisii,Bobasi,Ministry of Health,-0.83844,34.86165
16102,Seregeya Dispensary,Kakamega,Likuyani,Ministry of Health,0.281349,34.751401
17343,Piny Owacho Dispensary,Migori,Uriri,Community Development Fund,-0.931723,34.568456
13804,Midoti Dispensary,Migori,Suna East,Ministry of Health,-1.0601,34.4928
14131,Suguta Health Centre,Kisii,South Mugirango,Ministry of Health,0.538,35.5583
13180,SWOP-City,Nairobi,Starehe,Non-Governmental Organizations,-1.2852,36.821
14824,Kedowa Dispensary,Kericho,Kipkelion East,Ministry of Health,-0.1422,35.5156
13413,Nanighi Health Centre,Garissa,Fafi,Ministry of Health,-0.448915,39.661493
20078,Farmers choice wellness centre clinic,Nairobi,Roysambu,Private Enterprise (Institution),-1.18628,36.9101
13998,Otacho Dispensary,Migori,Awendo,Ministry of Health,-0.848,34.5551
16698,Lomelo Dispensary,Turkana,Turkana East,Ministry of Health,0.865298,36.452774
11720,Nyache Health Centre,Taita Taveta,Wundanyi,Ministry of Health,-3.3385,38.3808
13784,Masogo Dispensary,Homa Bay,Rachuonyo East,Ministry of Health,-0.4255,34.8233
16686,Hope Medical Clinic (Nakuru),Nakuru,Nakuru North,Private Practice - Nurse / Midwife,-0.2952,36.0454
13202,St Francis Community Hospital,Nairobi,Kasarani,Private Enterprise (Institution),-1.2254,36.9157
17593,Remba Dispensary,Homa Bay,Suba West,Ministry of Health,-0.4566,33.9315
20425,AP Kanyonyo Dispensary,Kitui,Kitui Rural,Ministry of Health,-1.1088,37.7248
13831,Muhoroni County Hospital,Kisumu,Muhoroni,Ministry of Health,-0.1511,35.2057
14596,JFK Engineering Disp,Kericho,Belgut,Private Enterprise (Institution),-0.36343,35.283312
15719,Tenwek Mission Hospital,Bomet,Bomet Central,Christian Health Association of Kenya,-0.7433,35.3594
15035,Likii Dispensary,Laikipia,Laikipia East,Other Public Institution,0.0242,37.0776
17521,Randago Dispensary,Siaya,Alego Usonga,Ministry of Health,0.0143,34.2929
10639,Kirwara Sub District Hospital,Murang'a,Gatanga,Ministry of Health,-0.9294,36.9431
14088,Simba Opepo Health Centre,Kisumu,Kisumu East,Local Authority,-0.0475,34.7931
13993,Oruba Nursing and Maternity Home,Migori,Suna West,Private Enterprise (Institution),-0.931723,34.568456
15093,Losogwa Dispensary,Laikipia,Laikipia West,Ministry of Health,0.255549,36.225048
11493,Kiwandani Dispensary,Kilifi,Kilifi North,Ministry of Health,-3.6191,39.8644
12806,Tulia Health Centre,Kitui,Kitui West,Ministry of Health,-1.18803,37.97604
12197,Karare Dispensary,Marsabit,Saku,Kenya Episcopal Conference-Catholic Secretariat,2.344972,37.999111
19930,LVCT DICE Clinic Muhuru,Migori,Nyatike,Non-Governmental Organizations,-1.0002,34.1
20628,Avenue Healthcare Thika,Kiambu,Thika Town,Private Practice - General Practitioner,-1.03823,37.07727
21345,Lokichar Health Centre,Turkana,Turkana South,Ministry of Health,2.41689,35.7149
13994,Orwaki Dispensary,Nyamira,Nyamira North,Ministry of Health,-0.4813,34.9508
12333,Kirie Dispensary,Embu,Mbeere North,Ministry of Health,-0.6184,37.71313
12885,AHF Mathare Blue House Clinic,Nairobi,Kamukunji,Non-Governmental Organizations,-1.2663,36.8534
12477,Masongaleni Health Centre,Makueni,Kibwezi East,Ministry of Health,-2.3697,37.9669
15432,Ol-Rongai Dispensary (Rongai),Nakuru,Rongai,Ministry of Health,-0.1404,36.0177
10488,Karatina Nursing Home,Nyeri,Mathira East,Private Enterprise (Institution),-0.426167,36.934726
14337,Chepkemel Dispensary,Uasin Gishu,Turbo,Ministry of Health,0.5917,34.9757
13746,Machururiati Dispensary,Nyamira,Masaba North,Ministry of Health,-0.7003,34.932
10973,Ruiru Sub-County Hospital,Kiambu,Ruiru,Ministry of Health,-1.1447,36.9563
18515,St Raphael Dispensary,Trans Nzoia,Saboti,Kenya Episcopal Conference-Catholic Secretariat,1.0388,34.9811
16922,Ndunduni Dispensary,Machakos,Kangundo,Ministry of Health,-1.2644,37.3523
18480,Mbuyu Dispensary,Nyandarua,Ndaragwa,Ministry of Health,-0.199985,36.375003
15623,Soy Health Centre,Uasin Gishu,Soy,Ministry of Health,0.677,35.1726
13724,Kuja Dispensary,Migori,Awendo,Ministry of Health,-0.8131,34.569
24563,Nairobi Adventist Hospital,Nairobi,Westlands,Seventh Day Adventist,-1.2243,36.7834
10321,Holy Cross Dispensary,Kiambu,Limuru,Kenya Episcopal Conference-Catholic Secretariat,-1.1889,36.5977
16009,Maturu Dispensary,Kakamega,Lugari,Ministry of Health,-0.7448,35.0586
11620,Miritini CDF Dispensary,Mombasa,Jomvu,Ministry of Health,-4.0018,39.584
15238,Msekekwa Health Centre,Elgeyo Marakwet,Keiyo North,Ministry of Health,0.6955,34.8563
11802,Sokoke Dispensary,Kilifi,Ganze,Ministry of Health,-3.968514,39.54447
12177,Kangundo District Hospital,Machakos,Kangundo,Ministry of Health,-1.2992,37.3462
17094,Tinganga Catholic Dispensary,Kiambu,Kiambu Town,Kenya Episcopal Conference-Catholic Secretariat,-1.1331,36.8194
10988,Sacred Heart Dispensary,Kiambu,Kiambaa,Other Faith Based,-1.1878,36.766
16109,Shihome Dispensary,Kakamega,Malava,Ministry of Health,0.3914,34.7921
15161,Mawepi Medical and VCT Centre ,Kajiado,Kajiado East,Private Practice,-1.3071176,35.8302704
15939,Khunyangu Sub County Hospital,Busia,Butula,Ministry of Health,0.3377,34.2581
15962,Luanda Mch/Fp Clinic,Vihiga,Luanda,Private Practice - Nurse / Midwife,0.02562,34.58494
21135,Janeiro Nursing Home,Homa Bay,Rangwe,Private Practice - Clinical Officer,None,None
11600,Mewa Hospital,Mombasa,Mvita,Other Faith Based,-4.0531,39.6615
15042,Loboi Dispensary,Baringo,Marigat,Ministry of Health,0.581543,35.802044
13896,Nyamanga Dispensary,Migori,Nyatike,Ministry of Health,-0.931723,34.568456
14912,Kipsaraman Dispensary,Baringo,Baringo North,Kenya Episcopal Conference-Catholic Secretariat,0.73753,35.8302
14073,Sega Mission Hospital,Siaya,Ugenya,Private Enterprise (Institution),0.2635,34.2271
16188,Mariakani Community Health Care Services,Kilifi,Kaloleni,Private Practice - Nurse / Midwife,-3.8599,39.476
14707,Kapkeben Dispensary,Nandi,Aldai,Ministry of Health,0.1099,34.9234
13517,Bugumbe Health Centre,Migori,Kuria West,Ministry of Health,-1.17283,34.43824
20285,Lwanda Kobita Dispensary,Homa Bay,Ndhiwa,Ministry of Health,-0.8139,34.4428
20437,Tumaini Welliness Centre,Kisii,Kitutu Chache South,Private Practice - General Practitioner,None,None
12597,Mutindwa Dispensary,Tharaka-Nithi,Mwimbi,Ministry of Health,-0.298069,37.669799
16042,Mung'ung'u Dispensary,Kakamega,Matungu,Ministry of Health,0.281349,34.751401
11370,Family Medical Centre (Kisauni),Mombasa,Nyali,Private Enterprise (Institution),-4.06051,39.670281
14943,Kisima Health Centre,Samburu,Samburu Central,Ministry of Health,0.94261,36.76375
17910,Engos Health Centre Africa Mission Services,Narok,Transmara West,Christian Health Association of Kenya,-0.918432,35.299013
15976,Lurare Dispensary,Bungoma,Webuye East,Ministry of Health,0.578148,34.559255
15989,Makhanga Dispensary,Bungoma,Tongaren,Non-Governmental Organizations,0.578148,34.559255
15832,Bushiangala Health Centre,Kakamega,Ikolomani,Other Faith Based,0.281349,34.751401
19546,Meridian Medical Centre (Kileleshwa),Nairobi,Dagoretti North,Private Enterprise (Institution),-1.292066,36.821946
21037,Busagwa Dispensary,Busia,Bunyala,Ministry of Health,None,None
12305,Kikesa Dispensary,Machakos,Yatta,Ministry of Health,-1.2718,37.5468
12789,Tei Wa Yesu,Kitui,Mwingi North,Ministry of Health,-0.6078,38.1916
18330,Mavindu Dispensary,Makueni,Mbooni,Ministry of Health,-1.6173,37.4149
16278,Thim Lich Dispensary,Migori,Nyatike,Ministry of Health,-0.931723,34.568456
17725,Gertrude Komarock Clinic,Nairobi,Embakasi Central,Private Practice - General Practitioner,-1.2667,36.9111
19405,Bridging Outpatient,Nairobi,Roysambu,Private Enterprise (Institution),-1.1842,36.90333
18838,Mariakani Cottage Clinic,Machakos,Athi River,Private Enterprise (Institution),-1.38964,36.94073
12745,St Assisi Sisters of Mary Immaculate Nursing Home,Machakos,Athi River,Christian Health Association of Kenya,-1.3643,36.9351
13928,Nyang'oma Sub county Hospital,Kisumu,Muhoroni,Ministry of Health,-0.1459,35.0446
15707,Tangulbei Sub county,Baringo,Tiaty East,Ministry of Health,0.581543,35.802044
17083,Kembu Dispensary,Bomet,Bomet East,Ministry of Health,-0.918432,35.299013
16235,Kiguchwa Dispensary,Meru,Tigania East,Ministry of Health,-0.6624,34.7491
13541,Ekerubo Dispensary (Masaba),Kisii,Nyaribari Masaba,Ministry of Health,-0.560304,34.927533
10555,Kiang'ombe Dispensary,Kirinyaga,Kirinyaga East,Ministry of Health,-0.566715,37.320265
21335,Kakuma Health Centre,Turkana,Turkana West,Ministry of Health,3,35.123
12031,Gatimbi Health Centre,Meru,Imenti Central,Ministry of Health,-0.0106,37.6603
14044,Riakworo Dispensary,Nyamira,Masaba North,Christian Health Association of Kenya,-0.6919,34.9921
18426,Siala Kaduol,Siaya,Gem,Ministry of Health,0.001,34.46
15866,Ebusiratsi Health Centre,Vihiga,Emuhaya,Ministry of Health,0.0794,34.6344
17065,GK Kangeta,Meru,Igembe Central,Ministry of Health,0.2843,37.8849
14005,Ouya Dispensary,Siaya,Bondo,Ministry of Health,-0.1884,34.2453
20700,Keeping alive Society Hope,Kisumu,Kisumu Central,Non-Governmental Organizations,-0.083,34.7764
14237,Barsaloi GK Dispensary,Samburu,Samburu North,Ministry of Health,1.4362,36.8419
16749,Partners In Prevention,Kiambu,Thika Town,Non-Governmental Organizations,-1.02794,37.0685
12919,Dog Unit Dispensary (O P Kenya Police),Nairobi,Langata,Other Public Institution,-1.32213,36.77173
13585,Godbura Health Centre,Homa Bay,Suba South,Ministry of Health,-0.7223,34.0852
18212,Kenya Ports Authority Staff Clinic,Mombasa,Mvita,Parastatal,-4.05,39.6503
14508,Gilgil Astu Dispensary,Nakuru,Gilgil,Ministry of Health,-0.472,36.3346
17362,St Angela Melici Health Centre,Kiambu,Kabete,Other Faith Based,-1.168864,36.826319
16683,Kuresoi Health Centre,Nakuru,Kuresoi North,Ministry of Health,-0.3019,35.5321
12793,Thanantu Faith Hospital,Tharaka-Nithi,Tharaka North,Private Enterprise (Institution),0.0059,37.9539
18658,Mundoro Community Dispensary,Kiambu,Gatundu South,Community Development Fund,-1.168864,36.826319
16762,Emusanda Health Centre,Kakamega,Lurambi,Ministry of Health,0.2931,34.6471
11794,Silaloni Dispensary,Kwale,Kinango,Ministry of Health,-3.968514,39.54447
11392,Giriama Mission Dispensary,Kilifi,Kaloleni,Kenya Episcopal Conference-Catholic Secretariat,-3.968514,39.54447
14224,Bahati District Hospital,Nakuru,Nakuru North,Ministry of Health,-0.17031,36.12368
13499,Bar Olengo Dispensary,Siaya,Alego Usonga,Ministry of Health,0.0152,34.2108
12584,Mutembuku Dispensary,Makueni,Mbooni,Ministry of Health,-1.801198,37.708151
14717,Kapkimolwa Dispensary,Bomet,Bomet East,Ministry of Health,-0.918432,35.299013
12965,Guru Nanak Hospital,Nairobi,Starehe,Private Enterprise (Institution),-0.7611,34.8574
20491,Junda Dispensary,Mombasa,Kisauni,Ministry of Health,-3.8201905,39.78328262
10587,Kigumo Health Centre,Kiambu,Githunguri,Ministry of Health,-1.0344,36.8325
11553,AIC Malanga,Kilifi,Ganze,Christian Health Association of Kenya,-3.247,39.7918
23323,Mvindeni Dispensary,Kwale,Msambweni,Ministry of Health,-4.3174572,38.54519792
13926,Nyangiela Sub District Hospital,Homa Bay,Rachuonyo South,Ministry of Health,-0.5395,34.7072
18009,Algadir Medical Centre,Nakuru,Nakuru East,Ministry of Health,-0.2991,36.0677
11769,Sangekoro Dispensary,Taita Taveta,Wundanyi,Ministry of Health,-3.013948,38.211341
14373,Cheptongei Health Centre,Elgeyo Marakwet,Marakwet West,Ministry of Health,0.9409,35.5163
13619,Iraha Dispensary,Migori,Kuria West,Ministry of Health,-0.931723,34.568456
13635,Jevros Clinic,Migori,Awendo,Private Practice - Nurse / Midwifery,-0.8624566,34.5653748
12805,Tseikuru Sub-District Hospital,Kitui,Mwingi North,Ministry of Health,-0.3187,38.2211
11397,Shimo Borstal Dispensary (GK Prison),Mombasa,Mombasa,Ministry of Health,-3.9631,39.7336
14549,Holy Spirit Health Centre,Nakuru,Gilgil,Ministry of Health,-0.5016,36.3197
15816,Bujumba Dispensary,Busia,Butula,Other Faith Based,0.4608,34.1073
15947,Kimaeti Health Centre,Bungoma,Bumula,Ministry of Health,0.6044,34.4075
14167,Viagenco Medical Center,Homa Bay,Suba North,Non-Governmental Organizations,-0.4747,34.2865
13507,Bondo County Referral  Hospital,Siaya,Bondo,Ministry of Health,-0.0932,34.2745
18744,Premium Health services,Nairobi,Embakasi North,Private Enterprise (Institution),-1.292066,36.821946
12450,Makadara Health Care,Machakos,Athi River,Private Enterprise (Institution),-1.468774,37.732655
15026,lemotit Dispensary,Kericho,Kipkelion East,Ministry of Health,-0.1214379,35.5194077
14101,St Akidiva Memorial Hospital,Migori,Awendo,Private Practice - Nurse / Midwife,-1.0954761,34.4517249
14679,Kamwingi Dispensary,Kericho,Kipkelion East,Ministry of Health,-0.1682,35.4484
10489,Karatu health centre,Kiambu,Gatundu South,Ministry of Health,-0.945,36.8267
14132,Sulwe Clinic,Homa Bay,Rachuonyo South,Private Enterprise (Institution),-0.5064,34.7368
17191,Murindoku Dispensary,Nakuru,Kuresoi North,Ministry of Health,-0.283028,36.075022
13614,Igena-Itambe Dispensary,Nyamira,Nyamira,Ministry of Health,-0.63707,34.91642
14857,Kibwareng Health Centre,Nandi,Aldai,Ministry of Health,0.0111,34.9537
14175,Yala Sub County Hospital,Siaya,Gem,Ministry of Health,0.101,34.5375
12569,Mulutu Mission Dispensary,Kitui,Kitui Central,Other Faith Based,-1.3522,37.9502
16104,Shamakhubu Health Centre,Kakamega,Shinyalu,Ministry of Health,0.2647,34.8279
13521,Chemelil GOK Dispensary,Kisumu,Muhoroni,Ministry of Health,-0.1073,35.1085
13890,Nyalunya Health Centre,Kisumu,Kisumu East,Ministry of Health,-0.1175,34.8092
13173,Reuben Mukuru Health Centre,Nairobi,Embakasi South,Kenya Episcopal Conference-Catholic Secretariat,-1.316,36.8695
16272,Mugabo Dispensary,Migori,Nyatike,Ministry of Health,None,None
13782,Maseno University Health centre,Kisumu,Kisumu West,Parastatal,-0.0015,34.6107
22003,Chebukutumi Dispensary,Bungoma,Sirisia,Ministry of Health,None,None
